[{"id":2399,"address":"4601 DE ZAVALA RD  SAN ANTONIO TX","longitude":-98.57722,"latitude":29.56951},{"id":2401,"address":"13330 BLANCO RD  SAN ANTONIO TX","longitude":-98.518768,"latitude":29.569198},{"id":2400,"address":"815 RAYBURN DR  SAN ANTONIO TX","longitude":-98.517056,"latitude":29.358075},{"id":2402,"address":"416 E DEWEY PL SAN ANTONIO TX","longitude":-98.489408,"latitude":29.446672},{"id":2410,"address":"938 E 300 S SALT LAKE CITY UT","longitude":-111.863969,"latitude":40.762405},{"id":2411,"address":"1484 W 3500 S SALT LAKE CITY UT","longitude":-111.933625,"latitude":40.699325},{"id":2415,"address":"837 E 700 S SALT LAKE CITY UT","longitude":-111.8668,"latitude":40.75441},{"id":2420,"address":"250 E 200 S SALT LAKE CITY UT","longitude":-111.884391,"latitude":40.76456},{"id":2403,"address":"1441 CONTOUR DR  SAN ANTONIO TX","longitude":-98.49346,"latitude":29.48616},{"id":2407,"address":"15 S 300 E SALT LAKE CITY UT","longitude":-111.882152,"latitude":40.768805},{"id":2414,"address":"1329 N REDWOOD RD SALT LAKE CITY UT","longitude":-111.93953,"latitude":40.79864},{"id":2406,"address":"138 AVE DEL REY  SAN ANTONIO TX","longitude":-98.500887,"latitude":29.495015},{"id":2404,"address":"1535 CONTOUR DR  SAN ANTONIO TX","longitude":-98.49737,"latitude":29.48602},{"id":2409,"address":"3510 W 3650 S SALT LAKE CITY UT","longitude":-111.97512,"latitude":40.693505},{"id":2413,"address":"316 S CHEYENNE ST SALT LAKE CITY UT","longitude":-111.93473,"latitude":40.762505},{"id":2417,"address":"173 N ST SALT LAKE CITY UT","longitude":-111.86437,"latitude":40.773445},{"id":2405,"address":"202 OBLATE DR  SAN ANTONIO TX","longitude":-98.504854,"latitude":29.504015},{"id":2412,"address":"838 S ROBERTA ST APT 1-6 SALT LAKE CITY UT","longitude":-111.8842,"latitude":40.7509},{"id":2418,"address":"4365 S FAIRBOURNE AVE SALT LAKE CITY UT","longitude":-111.885598,"latitude":40.675958},{"id":2421,"address":"659 E 800 S SALT LAKE CITY UT","longitude":-111.871907,"latitude":40.75231},{"id":2423,"address":"220 S ELIZABETH ST SALT LAKE CITY UT","longitude":-111.85866,"latitude":40.764145},{"id":2426,"address":"4411 S GARDEN DR SALT LAKE CITY UT","longitude":-111.8631,"latitude":40.67564},{"id":2428,"address":"248 S 800 E SALT LAKE CITY UT","longitude":-111.868848,"latitude":40.76376},{"id":2430,"address":"130 S 800 E SALT LAKE CITY UT","longitude":-111.868634,"latitude":40.766425},{"id":2432,"address":"2828 S 200  SALT LAKE CITY UT","longitude":-111.88572,"latitude":40.70929},{"id":2434,"address":"1594 E 3300 S SALT LAKE CITY UT","longitude":-111.803078,"latitude":40.702915},{"id":2436,"address":"58 S 1000 E SALT LAKE CITY UT","longitude":-111.86289,"latitude":40.76792},{"id":2438,"address":"647 S 1200  SALT LAKE CITY UT","longitude":-111.925946,"latitude":40.755082},{"id":2408,"address":"717 S 600 E SALT LAKE CITY UT","longitude":-111.873535,"latitude":40.75365},{"id":2419,"address":"235 S 200 E SALT LAKE CITY UT","longitude":-111.884909,"latitude":40.764},{"id":2425,"address":"356 S 1200 E SALT LAKE CITY UT","longitude":-111.85722,"latitude":40.76139},{"id":2427,"address":"313 E 3RD AVE SALT LAKE CITY UT","longitude":-111.879963,"latitude":40.773165},{"id":2416,"address":"320 S 700 E SALT LAKE CITY UT","longitude":-111.87158,"latitude":40.76221},{"id":2422,"address":"419 E 200 S REAR SALT LAKE CITY UT","longitude":-111.878854,"latitude":40.765355},{"id":2429,"address":"4835 S MEMORY LN SALT LAKE CITY UT","longitude":-111.833035,"latitude":40.66448},{"id":2431,"address":"25 S 1100 E SALT LAKE CITY UT","longitude":-111.859508,"latitude":40.749369},{"id":2435,"address":"905 E 200 S SALT LAKE CITY UT","longitude":-111.864918,"latitude":40.765358},{"id":2433,"address":"750 S 900 E SALT LAKE CITY UT","longitude":-111.86576,"latitude":40.752915},{"id":2437,"address":"1347 E FORT UNION BLVD  SALT LAKE CITY UT","longitude":-111.852875,"latitude":40.626655},{"id":2463,"address":"3835 ETTA DR NE #3963 SALEM OR","longitude":-122.9863,"latitude":44.98045},{"id":2465,"address":"807 LIBERTY ST SE #861 SALEM OR","longitude":-123.042828,"latitude":44.932596},{"id":2467,"address":"401 RATCLIFF DR SE #477 SALEM OR","longitude":-123.042642,"latitude":44.909526},{"id":2468,"address":"3402 FAIRHAVEN AVE NE #3570 SALEM OR","longitude":-122.99397,"latitude":44.96971},{"id":2470,"address":"3330 PRINGLE RD SE #3342 SALEM OR","longitude":-123.025556,"latitude":44.907825},{"id":2472,"address":"2502 RIVER RD S #2840 SALEM OR","longitude":-123.06432,"latitude":44.914255},{"id":2476,"address":"4788 SKYLINE RD S SALEM OR","longitude":-123.064748,"latitude":44.886755},{"id":2478,"address":"3215 FELINA AVE  SALEM OR","longitude":-122.993268,"latitude":44.97683},{"id":2440,"address":"642-644 S 800  SALT LAKE CITY UT","longitude":-111.912777,"latitude":40.751545},{"id":2442,"address":"80 M ST SALT LAKE CITY UT","longitude":-111.865325,"latitude":40.77126},{"id":2444,"address":"1877 S 200  SALT LAKE CITY UT","longitude":-111.885246,"latitude":40.729392},{"id":2446,"address":"306 N Jackson St Salisbury NC","longitude":-80.469417,"latitude":35.67162},{"id":2448,"address":"335 LUMEN CHRISTIE LN SALISBURY NC","longitude":-80.507857,"latitude":35.706414},{"id":2450,"address":"4999 Skyline Rd S Salem OR","longitude":-123.070193,"latitude":44.883498},{"id":2452,"address":"1010 13th St SE Salem OR","longitude":-123.029013,"latitude":44.927453},{"id":2454,"address":"2020 Commercial St SE Salem OR","longitude":-123.044345,"latitude":44.921021},{"id":2456,"address":"1185 22nd St SE Salem OR","longitude":-123.01849,"latitude":44.92484},{"id":2458,"address":"2510 12th St SE Salem OR","longitude":-123.030237,"latitude":44.916643},{"id":2460,"address":"400 MADRONA AVE SE SALEM OR","longitude":-123.047039,"latitude":44.903455},{"id":2441,"address":"4520 S 200  SALT LAKE CITY UT","longitude":-111.89719,"latitude":40.67369},{"id":2439,"address":"107 B ST  SALT LAKE CITY UT","longitude":-111.882335,"latitude":40.77196},{"id":2443,"address":"605 N COLUMBUS ST  SALT LAKE CITY UT","longitude":-111.890475,"latitude":40.782877},{"id":2445,"address":"353 S 1100  SALT LAKE CITY UT","longitude":-111.85906,"latitude":40.76147},{"id":2457,"address":"3380 Astoria Way NE Salem OR","longitude":-122.991366,"latitude":44.986514},{"id":2469,"address":"3811 LANCASTER DR NE #3865 SALEM OR","longitude":-122.98371,"latitude":44.97464},{"id":2477,"address":"1810 A ST  SALEM OR","longitude":-123.01603,"latitude":44.94084},{"id":2449,"address":"4175 Silverton Rd NE Salem OR","longitude":-122.979855,"latitude":44.970138},{"id":2447,"address":"1100 W Fisher St Salisbury NC","longitude":-80.482625,"latitude":35.6756},{"id":2453,"address":"3300 State St Salem OR","longitude":-122.99472,"latitude":44.927467},{"id":2455,"address":"5050 Skyline Village Loop S Salem OR","longitude":-123.069808,"latitude":44.882484},{"id":2459,"address":"2965 Ryan Dr SE Salem OR","longitude":-123.000737,"latitude":44.92011},{"id":2466,"address":"4131 EMBASSY WAY NE #4198 SALEM OR","longitude":-122.98145,"latitude":44.97815},{"id":2471,"address":"3232 FELINA AVE NE #3324 SALEM OR","longitude":-122.993163,"latitude":44.976435},{"id":2451,"address":"120 Ramsgate Sq SE Salem OR","longitude":-123.050861,"latitude":44.903141},{"id":2462,"address":"3862 LANCASTER DR NE #3884 SALEM OR","longitude":-122.98309,"latitude":44.97489},{"id":2464,"address":"4902 TURQUOISE AVE SE #4960 SALEM OR","longitude":-122.960472,"latitude":44.913455},{"id":2473,"address":"3880 AUBURN RD  SALEM OR","longitude":-122.98543,"latitude":44.9364},{"id":2475,"address":"4553 LANCASTER DR  SALEM OR","longitude":-122.98369,"latitude":44.986855},{"id":2479,"address":"159 PEMBROOK ST  SALEM OR","longitude":-123.058597,"latitude":44.889941},{"id":2482,"address":"4131 EMBASSY WAY  SALEM OR","longitude":-122.98145,"latitude":44.97815},{"id":2484,"address":"572 LINCOLN AVE SAINT PAUL MN","longitude":-93.126211,"latitude":44.938854},{"id":2486,"address":"2130 COMO AVE SAINT PAUL MN","longitude":-93.1905,"latitude":44.97805},{"id":2488,"address":"35 LEXINGTON PKWY S SAINT PAUL MN","longitude":-93.147061,"latitude":44.940411},{"id":2490,"address":"944 SAINT PAUL AVE  SAINT PAUL MN","longitude":-93.18487,"latitude":44.91288},{"id":2492,"address":"701 CENTRAL AVE  SAINT PAUL MN","longitude":-93.130141,"latitude":44.95331},{"id":2494,"address":"412 DUNLAP ST  SAINT PAUL MN","longitude":-93.14874,"latitude":44.95374},{"id":2496,"address":"6841 MEADOWBROOK BLVD SAINT LOUIS PARK MN","longitude":-93.36639,"latitude":44.92812},{"id":2498,"address":"7119 SOUTH ST SAINT LOUIS MO","longitude":-90.312472,"latitude":38.619715},{"id":2500,"address":"2600 TYRELL DR SAINT LOUIS MO","longitude":-90.26206,"latitude":38.733395},{"id":2502,"address":"7506 FLETA ST SAINT LOUIS MO","longitude":-90.308932,"latitude":38.572929},{"id":2504,"address":"1107 BELLEVUE AVE SAINT LOUIS MO","longitude":-90.31265,"latitude":38.63101},{"id":2506,"address":"10510 HACKBERRY DR SAINT LOUIS MO","longitude":-90.36551,"latitude":38.525735},{"id":2508,"address":"4954 W PINE BLVD SAINT LOUIS MO","longitude":-90.263969,"latitude":38.641836},{"id":2510,"address":"7403 ELM AVE SAINT LOUIS MO","longitude":-90.320911,"latitude":38.608345},{"id":2512,"address":"7549 PARKDALE AVE SAINT LOUIS MO","longitude":-90.332177,"latitude":38.641655},{"id":2514,"address":"803 WESTWOOD DR SAINT LOUIS MO","longitude":-90.33354,"latitude":38.6393},{"id":2516,"address":"7401 SAN DIEGO AVE SAINT LOUIS MO","longitude":-90.293205,"latitude":38.714007},{"id":2520,"address":"6843 KINGSBURY BLVD SAINT LOUIS MO","longitude":-90.311313,"latitude":38.654225},{"id":2481,"address":"1665 LIBERTY ST  SALEM OR","longitude":-123.043166,"latitude":44.924366},{"id":2487,"address":"458 ENGLISH ST  SAINT PAUL MN","longitude":-93.045321,"latitude":44.955405},{"id":2501,"address":"9904 HOBBITS GLEN CT SAINT LOUIS MO","longitude":-90.255194,"latitude":38.747735},{"id":2505,"address":"4120 GRASSO AVE SAINT LOUIS MO","longitude":-90.289222,"latitude":38.551345},{"id":2513,"address":"3755 LINDELL BLVD SAINT LOUIS MO","longitude":-90.238026,"latitude":38.638704},{"id":2483,"address":"400 PIERCE ST  SAINT PAUL MN","longitude":-93.170533,"latitude":44.953404},{"id":2485,"address":"1661 WESTERN AVE N SAINT PAUL MN","longitude":-93.116431,"latitude":44.991039},{"id":2489,"address":"589 CLEVELAND AVE  SAINT PAUL MN","longitude":-93.187397,"latitude":44.958426},{"id":2491,"address":"1776 SAINT CLAIR AVE  SAINT PAUL MN","longitude":-93.17566,"latitude":44.934032},{"id":2493,"address":"908 GRAND AVE SAINT PAUL MN","longitude":-93.1385,"latitude":44.939746},{"id":2497,"address":"5951 GOODFELLOW BLVD #5973 SAINT LOUIS MO","longitude":-90.25411,"latitude":38.71527},{"id":2499,"address":"150 N BRENTWOOD BLVD SAINT LOUIS MO","longitude":-90.340432,"latitude":38.653456},{"id":2503,"address":"2120 SWITZER AVE SAINT LOUIS MO","longitude":-90.259792,"latitude":38.72066},{"id":2507,"address":"1 MCKNIGHT PL R SAINT LOUIS MO","longitude":-90.199585,"latitude":38.626426},{"id":2511,"address":"7296 LYNDOVER PL SAINT LOUIS MO","longitude":-90.317278,"latitude":38.615285},{"id":2515,"address":"551 S CLAY AVE SAINT LOUIS MO","longitude":-90.409455,"latitude":38.571915},{"id":2517,"address":"2542 S BIG BEND BLVD SAINT LOUIS MO","longitude":-90.322041,"latitude":38.615305},{"id":2519,"address":"8649 OLD BONHOMME RD SAINT LOUIS MO","longitude":-90.35977,"latitude":38.66837},{"id":2495,"address":"429 IDAHO AVE W SAINT PAUL MN","longitude":-93.117888,"latitude":44.990241},{"id":2509,"address":"2831 LACLEDE STATION RD SAINT LOUIS MO","longitude":-90.329701,"latitude":38.61076},{"id":2524,"address":"2111 BELLEVUE AVE SAINT LOUIS MO","longitude":-90.313685,"latitude":38.62014},{"id":2526,"address":"620 CHAIN OF ROCKS DR #630 SAINT LOUIS MO","longitude":-90.223075,"latitude":38.729155},{"id":2528,"address":"45 S OLD ORCHARD AVE SAINT LOUIS MO","longitude":-90.339651,"latitude":38.58953},{"id":2530,"address":"3730 LEMAY VILLAGE LN SAINT LOUIS MO","longitude":-90.322771,"latitude":38.511053},{"id":2532,"address":"1245 N NORTH AND SOUTH RD SAINT LOUIS MO","longitude":7.188416,"latitude":48.716078},{"id":2534,"address":"1505 OAK FOREST SPUR DR SAINT LOUIS MO","longitude":-90.409439,"latitude":38.692075},{"id":2536,"address":"11011 HUSON VALLEY DR SAINT LOUIS MO","longitude":-90.19635,"latitude":38.76818},{"id":2538,"address":"7221 ANNA AVE SAINT LOUIS MO","longitude":-90.314533,"latitude":38.61185},{"id":2540,"address":"6300 N ROSEBURY AVE SAINT LOUIS MO","longitude":-90.305865,"latitude":38.63751},{"id":2542,"address":"6652 WASHINGTON AVE SAINT LOUIS MO","longitude":-90.212149,"latitude":38.634983},{"id":2544,"address":"4231 DAIQUIRI LN SAINT LOUIS MO","longitude":-90.35165,"latitude":38.488265},{"id":2548,"address":"5715 MAPLE AVE #5757 SAINT LOUIS MO","longitude":-90.28475,"latitude":38.661095},{"id":2550,"address":"7321 WISE AVE SAINT LOUIS MO","longitude":-90.313478,"latitude":38.630745},{"id":2552,"address":"7552 OXFORD DR SAINT LOUIS MO","longitude":-90.332261,"latitude":38.639645},{"id":2554,"address":"1059 VILLA SAINT CYR PL SAINT LOUIS MO","longitude":-90.22935,"latitude":38.73405},{"id":2556,"address":"30 Desoto Pl Saint Augustine FL","longitude":-81.315462,"latitude":29.88975},{"id":2558,"address":"743 WESTWOOD DR SAINT LOUIS MO","longitude":-90.333737,"latitude":38.640425},{"id":2560,"address":"2510 Deer Run Rd Saint Augustine FL","longitude":-81.370988,"latitude":29.91344},{"id":2521,"address":"7518 CROMWELL DR SAINT LOUIS MO","longitude":-90.33082,"latitude":38.63733},{"id":2533,"address":"3110 ALPEN ROSE CT SAINT LOUIS MO","longitude":-90.298135,"latitude":38.499915},{"id":2535,"address":"3450 RUSSELL BLVD SAINT LOUIS MO","longitude":-90.237694,"latitude":38.612575},{"id":2543,"address":"2624 ROSELAND TER SAINT LOUIS MO","longitude":-90.315877,"latitude":38.614725},{"id":2551,"address":"4920 CLAYRIDGE DR SAINT LOUIS MO","longitude":-90.34803,"latitude":38.488455},{"id":2559,"address":"6820 DELMAR BLVD  SAINT LOUIS MO","longitude":-90.310013,"latitude":38.656045},{"id":2523,"address":"7569 ELLIS AVE SAINT LOUIS MO","longitude":-90.32569,"latitude":38.61203},{"id":2525,"address":"7334 FORSYTH BLVD SAINT LOUIS MO","longitude":-90.32666,"latitude":38.64817},{"id":2527,"address":"1920 S 8TH ST SAINT LOUIS MO","longitude":-90.203278,"latitude":38.60759},{"id":2529,"address":"8855 MAYA LN SAINT LOUIS MO","longitude":-90.25928,"latitude":38.732265},{"id":2537,"address":"418 N CLAY AVE SAINT LOUIS MO","longitude":-90.408328,"latitude":38.585225},{"id":2539,"address":"6312 N ROSEBURY AVE SAINT LOUIS MO","longitude":-90.306245,"latitude":38.637645},{"id":2541,"address":"8323 DELMAR BLVD SAINT LOUIS MO","longitude":-90.352918,"latitude":38.661121},{"id":2545,"address":"9921 SLOANE SQ SAINT LOUIS MO","longitude":-90.350335,"latitude":38.731625},{"id":2547,"address":"4242 LINDELL BLVD SAINT LOUIS MO","longitude":-90.250021,"latitude":38.640375},{"id":2553,"address":"11501 TIVOLI LN SAINT LOUIS MO","longitude":-90.42445,"latitude":38.69361},{"id":2555,"address":"6636 ALAMO AVE SAINT LOUIS MO","longitude":-90.315764,"latitude":38.635305},{"id":2557,"address":"975 E Townsend Rd Saint Johns MI","longitude":-84.544658,"latitude":42.987327},{"id":2531,"address":"7506 CROMWELL DR SAINT LOUIS MO","longitude":-90.3303,"latitude":38.63735},{"id":2549,"address":"7548 PARKDALE AVE SAINT LOUIS MO","longitude":-90.331805,"latitude":38.641148},{"id":2564,"address":"10122 CAMSHIRE CT SAINT ANN MO","longitude":-90.376792,"latitude":38.733753},{"id":2566,"address":"11087 GRABEN DR SAINT ANN MO","longitude":-90.404438,"latitude":38.723086},{"id":2798,"address":"825 NE 55TH AVE PORTLAND OR","longitude":-122.607866,"latitude":45.529522},{"id":2800,"address":"2486 NW WESTOVER RD PORTLAND OR","longitude":-122.702186,"latitude":45.528105},{"id":2804,"address":"19511 NE HALSEY ST PORTLAND OR","longitude":-122.462009,"latitude":45.533951},{"id":2812,"address":"2331 NE EVERETT ST #2343 PORTLAND OR","longitude":-122.641735,"latitude":45.525225},{"id":2818,"address":"2166 NW IRVING ST  PORTLAND OR","longitude":-122.695925,"latitude":45.527475},{"id":2827,"address":"2500 NE COUCH ST  PORTLAND OR","longitude":-122.64025,"latitude":45.52337},{"id":2829,"address":"4620 SW CONDOR AVE  PORTLAND OR","longitude":-122.67902,"latitude":45.48986},{"id":2561,"address":"10130 CABANA CLUB DR SAINT ANN MO","longitude":-90.376928,"latitude":38.735145},{"id":2563,"address":"2 11TH ST SAINT AUGUSTINE FL","longitude":-81.265741,"latitude":29.85225},{"id":2565,"address":"3710 GERALDINE AVE SAINT ANN MO","longitude":-90.374193,"latitude":38.724098},{"id":2567,"address":"9840 LE COEUR CT SAINT ANN MO","longitude":-90.371525,"latitude":38.718885},{"id":2799,"address":"2234 SW VISTA AVE PORTLAND OR","longitude":-122.69805,"latitude":45.51071},{"id":2801,"address":"230 NE 100TH AVE PORTLAND OR","longitude":-122.560299,"latitude":45.524589},{"id":2803,"address":"12540 SE POWELL CT PORTLAND OR","longitude":-122.53677,"latitude":45.496818},{"id":2805,"address":"18010 SE DIVISION ST #18096 PORTLAND OR","longitude":-122.477579,"latitude":45.50388},{"id":2806,"address":"2727 NW PETTYGROVE ST PORTLAND OR","longitude":-122.707429,"latitude":45.53266},{"id":2807,"address":"17924 SE DIVISION ST PORTLAND OR","longitude":-122.478263,"latitude":45.50389},{"id":2808,"address":"8304 SE FLAVEL ST #8340 PORTLAND OR","longitude":-122.577669,"latitude":45.468345},{"id":2809,"address":"16520 NE GLISAN ST #16612 PORTLAND OR","longitude":-122.49218,"latitude":45.52591},{"id":2810,"address":"1525 NE 24TH AVE PORTLAND OR","longitude":-122.64153,"latitude":45.51164},{"id":2811,"address":"2921 SE ALDER ST PORTLAND OR","longitude":-122.635465,"latitude":45.51804},{"id":2813,"address":"5939 SE STARK ST PORTLAND OR","longitude":-122.603387,"latitude":45.51969},{"id":2814,"address":"3903 SE CESAR E CHAVEZ BLVD #3915 PORTLAND OR","longitude":-122.62292,"latitude":45.51904},{"id":2815,"address":"4545 NE 125TH PL WI PORTLAND OR","longitude":-122.53178,"latitude":45.55561},{"id":2816,"address":"2438 SE MAIN ST  PORTLAND OR","longitude":-122.640357,"latitude":45.513502},{"id":2817,"address":"1814 SE MADISON ST PORTLAND OR","longitude":-122.647215,"latitude":45.512674},{"id":2819,"address":"17782 E BURNSIDE ST  PORTLAND OR","longitude":-122.48054,"latitude":45.5215},{"id":2820,"address":"3424 SE 52ND AVE  PORTLAND OR","longitude":-122.608744,"latitude":45.498083},{"id":2821,"address":"1810 NE 11TH AVE  PORTLAND OR","longitude":-122.65422,"latitude":45.536015},{"id":2822,"address":"2341 SE 152ND AVE  PORTLAND OR","longitude":-122.507927,"latitude":45.505365},{"id":2823,"address":"502 SE 26TH AVE #522 PORTLAND OR","longitude":-122.638882,"latitude":45.51913},{"id":2824,"address":"401 SE 27TH AVE  PORTLAND OR","longitude":-122.638615,"latitude":45.519821},{"id":2825,"address":"4512 SE 35TH AVE #4528 PORTLAND OR","longitude":-122.628087,"latitude":45.490031},{"id":2826,"address":"333 SE 81ST AVE #351 PORTLAND OR","longitude":-122.580806,"latitude":45.519782},{"id":2830,"address":"1429 SW 14TH AVE PORTLAND OR","longitude":-122.68928,"latitude":45.51599},{"id":2831,"address":"5112 E BURNSIDE ST  PORTLAND OR","longitude":-122.611088,"latitude":45.522711},{"id":2828,"address":"2386 W BURNSIDE ST  PORTLAND OR","longitude":-122.700413,"latitude":45.523544},{"id":2584,"address":"192 Pennsylvania Ave Rochester PA","longitude":-80.278383,"latitude":40.702503},{"id":2605,"address":"2520 NE 9TH PL RENTON WA","longitude":-122.18479,"latitude":47.49888},{"id":2606,"address":"3030 NE 10TH ST RENTON WA","longitude":-122.178054,"latitude":47.499217},{"id":2607,"address":"321 FACTORY AVE  RENTON WA","longitude":-122.19849,"latitude":47.48736},{"id":2608,"address":"1033 SUNSET BLVD  RENTON WA","longitude":-122.190501,"latitude":47.500159},{"id":2568,"address":"735 Rock Rd Rutherfordton NC","longitude":-81.9477,"latitude":35.39877},{"id":2569,"address":"1102 N Benjamin St Rushville IN","longitude":-85.434761,"latitude":39.619125},{"id":2570,"address":"3815 CROOKS RD  ROYAL OAK MI","longitude":-83.16628,"latitude":42.52277},{"id":2571,"address":"1115 W FARNUM AVE 101 ROYAL OAK MI","longitude":-83.157664,"latitude":42.492965},{"id":2572,"address":"12 Barden Pl Roxboro NC","longitude":-78.992578,"latitude":36.390667},{"id":2573,"address":"2545 HAMLINE AVE  ROSEVILLE MN","longitude":-93.15763,"latitude":45.017675},{"id":2575,"address":"1943 LEXINGTON AVE  ROSEVILLE MN","longitude":-93.14684,"latitude":44.99997},{"id":2576,"address":"403 DORCHESTER ST 7 ROSELLE IL","longitude":-88.10781,"latitude":41.97487},{"id":2577,"address":"735 E IRVING PARK RD #95 ROSELLE IL","longitude":-88.06213,"latitude":41.97853},{"id":2578,"address":"563 PLUM GROVE RD ROSELLE IL","longitude":-88.05908,"latitude":41.99433},{"id":2579,"address":"716 Starling Way Rocky Mount NC","longitude":-77.820616,"latitude":35.921537},{"id":2580,"address":"503 DORCHESTER CT 7 ROSELLE IL","longitude":-88.10833,"latitude":41.97371},{"id":2581,"address":"832 W Harvard Ave Roseburg OR","longitude":-123.358641,"latitude":43.214117},{"id":2585,"address":"311 Rockford Park Dr NE Rockford MI","longitude":-85.552142,"latitude":43.141642},{"id":2588,"address":"1001 E MAIN ST RICHMOND VA","longitude":-77.43543,"latitude":37.537412},{"id":2589,"address":"928 W FRANKLIN ST RICHMOND VA","longitude":-77.452248,"latitude":37.549202},{"id":2590,"address":"3425 KENSINGTON AVE  RICHMOND VA","longitude":-77.48261,"latitude":37.56167},{"id":2592,"address":"2411 Steptoe St Richland WA","longitude":-119.244237,"latitude":46.234458},{"id":2593,"address":"1135 Jadwin Ave Richland WA","longitude":-119.276937,"latitude":46.282721},{"id":2595,"address":"6770 E LIVINGSTON AVE REYNOLDSBURG OH","longitude":-82.815223,"latitude":39.945035},{"id":2596,"address":"2727 GRAND HAVEN DR REYNOLDSBURG OH","longitude":-82.80106,"latitude":39.92881},{"id":2597,"address":"2220 BALDWIN PL REYNOLDSBURG OH","longitude":-82.816393,"latitude":39.936745},{"id":2598,"address":"17722-17726 Talbot Rd S Renton WA","longitude":-122.211409,"latitude":47.4465785},{"id":2599,"address":"1801 Lind Ave SW Renton WA","longitude":-122.225245,"latitude":47.464285},{"id":2602,"address":"400 TAYLOR AVE NW RENTON WA","longitude":-122.219155,"latitude":47.48862},{"id":2603,"address":"333 VUEMONT PL NE RENTON WA","longitude":-122.1925,"latitude":47.48734},{"id":2582,"address":"103 Jasmine Dr Rocky Mount NC","longitude":-77.795695,"latitude":35.942383},{"id":2583,"address":"1836 Eaglecrest Cir Rocky Mount NC","longitude":-77.795695,"latitude":35.942383},{"id":2586,"address":"325 1ST AVE  ROCHESTER MN","longitude":-92.46452,"latitude":44.026277},{"id":2587,"address":"3330 CIRCLE BROOK DR ROANOKE VA","longitude":-79.987266,"latitude":37.23351},{"id":2591,"address":"2124 W MAIN ST  RICHMOND VA","longitude":-77.467869,"latitude":37.550165},{"id":2600,"address":"17906 Talbot Rd S Renton WA","longitude":-122.210777,"latitude":47.441852},{"id":2601,"address":"906 GLENNWOOD AVE NE RENTON WA","longitude":-122.182576,"latitude":47.497519},{"id":2604,"address":"19002 108TH AVE SE RENTON WA","longitude":-122.19649,"latitude":47.43186},{"id":2611,"address":"4400 NE SUNSET BLVD  RENTON WA","longitude":-122.16046,"latitude":47.504945},{"id":2612,"address":"790 BRINKBY AVE RENO NV","longitude":-119.80611,"latitude":39.495045},{"id":2613,"address":"232 WEST ST RENO NV","longitude":-119.815612,"latitude":39.527245},{"id":2614,"address":"2695 CARVILLE DR RENO NV","longitude":-119.781041,"latitude":39.54274},{"id":2616,"address":"655 ROBINHOOD DR RENO NV","longitude":-119.805468,"latitude":39.495},{"id":2617,"address":"1010 BERRUM LN RENO NV","longitude":-119.809288,"latitude":39.49311},{"id":2618,"address":"1001 HARVARD WAY RENO NV","longitude":-119.786165,"latitude":39.514325},{"id":2619,"address":"300 HOLCOMB AVE RENO NV","longitude":-119.806275,"latitude":39.52298},{"id":2620,"address":"200 S CENTER ST UNIT 100 RENO NV","longitude":-119.81015,"latitude":39.523557},{"id":2621,"address":"1150 SEMINARY AVE RENO NV","longitude":-119.819497,"latitude":39.538965},{"id":2622,"address":"355 E GROVE ST  RENO NV","longitude":-119.792789,"latitude":39.501425},{"id":2623,"address":"500 BROADWAY BLVD RENO NV","longitude":-119.799714,"latitude":39.511375},{"id":2624,"address":"1502 Sherwood Dr Reidsville NC","longitude":-79.68727,"latitude":36.347724},{"id":2625,"address":"400 Stoney Creek Dr Reidsville NC","longitude":-79.632468,"latitude":36.338902},{"id":2626,"address":"1600-1604 Sherwood Dr Reidsville NC","longitude":-79.687801,"latitude":36.34272},{"id":2627,"address":"115 N Washington Ave Reidsville NC","longitude":-79.670427,"latitude":36.362675},{"id":2628,"address":"9447 166TH AVE NE REDMOND WA","longitude":-122.119254,"latitude":47.685376},{"id":2629,"address":"17209 Redmond Way Redmond WA","longitude":-122.110181,"latitude":47.670237},{"id":2630,"address":"24326 NE Redmond Fall City Rd Redmond WA","longitude":-122.013942,"latitude":47.641747},{"id":2631,"address":"9016 WOODINVILLE-REDMOND RD REDMOND WA","longitude":-122.111566,"latitude":47.705687},{"id":2632,"address":"16912 NE 79TH ST REDMOND WA","longitude":-122.114653,"latitude":47.673488},{"id":2633,"address":"16425 NE 91ST ST  REDMOND WA","longitude":-122.122033,"latitude":47.68301},{"id":2634,"address":"6059 Roper Run Rd Ravenel SC","longitude":-80.23447,"latitude":32.78301},{"id":2635,"address":"19 CONGRESSIONAL CIR #27 READING PA","longitude":-75.90851,"latitude":40.28198},{"id":2637,"address":"16928 NE 82ND ST  REDMOND WA","longitude":-122.114002,"latitude":47.676414},{"id":2638,"address":"201 Windsor Place Cir Randleman NC","longitude":-79.803183,"latitude":35.806246},{"id":2639,"address":"11031 Randleman Rd Randleman NC","longitude":-79.81189,"latitude":35.90649},{"id":2640,"address":"127 New Bern Pl Raleigh NC","longitude":-78.636746,"latitude":35.780667},{"id":2641,"address":"519 Wade Ave Raleigh NC","longitude":-78.64842,"latitude":35.796569},{"id":2643,"address":"1401 Stovall Dr Raleigh NC","longitude":-78.68924,"latitude":35.77887},{"id":2644,"address":"809-837 Suffolk Blvd Raleigh NC","longitude":-78.660166,"latitude":35.745586},{"id":2645,"address":"5020-B Edwards Mill Rd Raleigh NC","longitude":-78.639099,"latitude":35.780398},{"id":2646,"address":"600-635 Hilltop Dr Raleigh NC","longitude":-78.630483,"latitude":35.741039},{"id":2647,"address":"615 N Boylan Ave Raleigh NC","longitude":-78.649157,"latitude":35.787916},{"id":2648,"address":"573 E Davie St Raleigh NC","longitude":-78.623,"latitude":35.775177},{"id":2649,"address":"11031 Raven Ridge Rd Raleigh NC","longitude":-78.591653,"latitude":35.910003},{"id":2652,"address":"5499 Tralee Pl Raleigh NC","longitude":-78.638905,"latitude":35.854354},{"id":2653,"address":"205 W Davie St Raleigh NC","longitude":-78.642335,"latitude":35.775567},{"id":2654,"address":"2410-2559 Melvid Ct Raleigh NC","longitude":-78.605078,"latitude":35.772078},{"id":2655,"address":"6319 Fox Rd Raleigh NC","longitude":-78.56592,"latitude":35.86573},{"id":2656,"address":"11700 Arnold Palmer Dr Raleigh NC","longitude":-78.805753,"latitude":35.90312},{"id":2657,"address":"2227 Garner Rd Raleigh NC","longitude":-78.549047,"latitude":35.692364},{"id":2658,"address":"1810-1826 Gorman St Raleigh NC","longitude":-78.69224,"latitude":35.773695},{"id":2659,"address":"2251 Charles Dr Raleigh NC","longitude":-78.676238,"latitude":35.843139},{"id":2660,"address":"3709 Nova Star Ln Raleigh NC","longitude":-78.68181,"latitude":35.83299},{"id":2661,"address":"1309-1325 Kent Rd Raleigh NC","longitude":-78.58679,"latitude":35.75885},{"id":2662,"address":"2016-2114 Carroll Dr Raleigh NC","longitude":-78.64045,"latitude":35.80816},{"id":2663,"address":"211 Ashe Ave Raleigh NC","longitude":-78.658449,"latitude":35.781125},{"id":2664,"address":"3801 LUPTON CIR RALEIGH NC","longitude":-78.689187,"latitude":35.77618},{"id":2665,"address":"4344 Saint James Church Rd Raleigh NC","longitude":-78.574114,"latitude":35.840038},{"id":2666,"address":"1615-1713 Crest Rd Raleigh NC","longitude":-78.6846775,"latitude":35.775546},{"id":2667,"address":"3236 Shire Ln Raleigh Nc 27606","longitude":-78.69379,"latitude":35.76305},{"id":2668,"address":"1601 ROYAL PINES DR RALEIGH NC","longitude":-78.613427,"latitude":35.767618},{"id":2669,"address":"10304 BEAU JARDIN DR Raleigh MO","longitude":27.8157233,"latitude":48.0318141},{"id":2670,"address":"2401 GRANT AVE RALEIGH NC","longitude":-78.664242,"latitude":35.802085},{"id":2672,"address":"605 WOODBURN RD RALEIGH NC","longitude":-78.659421,"latitude":35.792375},{"id":2673,"address":"4000 SAINT JAMES CHURCH RD RALEIGH NC","longitude":-78.57059,"latitude":35.83593},{"id":2674,"address":"5620 TRINITY RD RALEIGH NC","longitude":-78.734646,"latitude":35.804365},{"id":2675,"address":"2604 HILLSBOROUGH ST RALEIGH NC","longitude":-78.67012,"latitude":35.788525},{"id":2676,"address":"1002 COLEMAN ST RALEIGH NC","longitude":-78.62335,"latitude":35.767406},{"id":2678,"address":"3305 BRIARCLIFF RD  RALEIGH NC","longitude":-78.582075,"latitude":35.771728},{"id":2679,"address":"3801 N MAIN ST RACINE WI","longitude":-87.781582,"latitude":42.76723},{"id":2680,"address":"3109 HILLSBOROUGH ST  RALEIGH NC","longitude":-78.678879,"latitude":35.789946},{"id":2681,"address":"106 Meadow Ln Raeford NC","longitude":-77.270479,"latitude":34.711312},{"id":2682,"address":"700 HIGHGATE PL RALEIGH NC","longitude":-78.600578,"latitude":35.789334},{"id":2683,"address":"2854 CROSSRIDGE DR RACINE WI","longitude":-87.83186,"latitude":42.75544},{"id":2684,"address":"3615 MONARCH DR RACINE WI","longitude":-87.837347,"latitude":42.689325},{"id":2686,"address":"5111 WRIGHT AVE RACINE WI","longitude":-87.841151,"latitude":42.714348},{"id":2687,"address":"5433 PENWOOD DR RALEIGH NC","longitude":-78.726067,"latitude":35.761406},{"id":2688,"address":"8011 112th St Ct E Puyallup WA","longitude":-122.322308,"latitude":47.154631},{"id":2689,"address":"1100 7TH AVE SE APT 10 PUYALLUP WA","longitude":-122.30851,"latitude":47.186255},{"id":2690,"address":"15356 77TH AVE QUEENS NY","longitude":-73.810637,"latitude":40.723528},{"id":2691,"address":"336 2nd St SE Puyallup WA","longitude":-122.292474,"latitude":47.188728},{"id":2671,"address":"901 MOSES CT RALEIGH NC","longitude":-78.635147,"latitude":35.793185},{"id":2677,"address":"1400 GORMAN ST  RALEIGH NC","longitude":-78.687726,"latitude":35.778809},{"id":1447,"address":"2 Royal park Dr Zeeland MI","longitude":-86.019381,"latitude":42.802737},{"id":1448,"address":"1028 S Arendell Ave Zebulon NC","longitude":-78.304158,"latitude":35.807115},{"id":1451,"address":"601 WORTH HINTON RD ZEBULON NC","longitude":-78.334249,"latitude":35.824755},{"id":1452,"address":"84 MCFAUL WAY ZEPHYR COVE NV","longitude":-119.942357,"latitude":38.986002},{"id":1453,"address":"2000 Wiggins Way Youngsville NC","longitude":-79.2184915,"latitude":35.454592},{"id":1454,"address":"9191 N LIMA RD YOUNGSTOWN OH","longitude":-80.612545,"latitude":40.98467},{"id":1455,"address":"702-748 S 10th St Youngwood PA","longitude":-79.59017,"latitude":40.23275},{"id":1458,"address":"2032 HEMPSTEDE DR ZEBULON NC","longitude":-78.336387,"latitude":35.823105},{"id":1459,"address":"46-58 Shields Rd Youngstown OH","longitude":-80.66455,"latitude":41.04663},{"id":1460,"address":"1 LAWRENCE PL  YONKERS NY","longitude":-73.888672,"latitude":40.926811},{"id":1461,"address":"1465 Townsend Ave Youngstown OH","longitude":-80.635088,"latitude":41.163228},{"id":1463,"address":"21 LAWRENCE PL YONKERS NY","longitude":-73.888005,"latitude":40.92675},{"id":1464,"address":"405 KILLION CT NW YELM WA","longitude":-122.68272,"latitude":45.663989},{"id":1465,"address":"400 SHOREVIEW DR  YONKERS NY","longitude":-73.82659,"latitude":40.97312},{"id":1466,"address":"920 N Detroit St Xenia OH","longitude":-83.933475,"latitude":39.697585},{"id":1467,"address":"835 PROPRIETORS RD WORTHINGTON OH","longitude":-83.004297,"latitude":40.089865},{"id":1469,"address":"2021 WILLOW BROOKE DR WOODSTOCK IL","longitude":-88.429942,"latitude":42.292401},{"id":1470,"address":"275 7th St Yanceyville NC","longitude":-79.34978,"latitude":36.409684},{"id":1471,"address":"97 BRUCE AVE  YONKERS NY","longitude":-73.896161,"latitude":40.914105},{"id":1472,"address":"467-507 E Stafford Ave Worthington OH","longitude":-83.010245375,"latitude":40.0912285},{"id":1473,"address":"59 ROCK CITY RD  WOODSTOCK NY","longitude":-74.11863,"latitude":42.04524},{"id":1474,"address":"707-709 Patton Cir Winterville NC","longitude":-77.40829725,"latitude":35.5572675},{"id":1475,"address":"245 Weaverville Rd Woodfin NC","longitude":-82.579793,"latitude":35.654875},{"id":1476,"address":"401 S 12th Ave Yakima WA","longitude":-120.52525,"latitude":46.593675},{"id":1479,"address":"215 Fayetteville St Winston-Salem NC","longitude":-80.23413,"latitude":36.07694},{"id":1480,"address":"206 LAKE NED RD WINTER HAVEN FL","longitude":-81.672485,"latitude":27.996285},{"id":1481,"address":"196 Wilson Dr Xenia OH","longitude":-83.9295,"latitude":39.69925},{"id":1482,"address":"100 EASTLAND DR WOODRUFF SC","longitude":-82.017411,"latitude":34.728688},{"id":1483,"address":"1570 JAMES ST #1582 WOODBURN OR","longitude":-122.836968,"latitude":45.147135},{"id":1484,"address":"1609-1640 W Northwest Blvd Winston-Salem NC","longitude":-80.260402,"latitude":36.1034},{"id":1485,"address":"4754 Kirk Rd Winston-Salem NC","longitude":-80.343868,"latitude":36.07116},{"id":1486,"address":"4240 Bethania Station Rd Winston-Salem NC","longitude":-80.290479,"latitude":36.17067},{"id":1487,"address":"725 Akron Dr Winston-Salem NC","longitude":-80.23313,"latitude":36.1415},{"id":1457,"address":"205-211 Park Ave Youngstown OH","longitude":-80.64679,"latitude":40.98197},{"id":1478,"address":"2000 15TH CT NW WINTER HAVEN FL","longitude":-81.74404,"latitude":28.04581},{"id":1462,"address":"2 TATE WAY YORK PA","longitude":-76.6823,"latitude":39.91951},{"id":1468,"address":"1609 Creekside Loop Yakima WA","longitude":-120.558151,"latitude":46.578281},{"id":1477,"address":"1300 Waughtown St Winston-Salem NC","longitude":-80.21036,"latitude":36.06837},{"id":1490,"address":"4665 Pratt Rd Winston-Salem NC","longitude":-80.325419,"latitude":36.161215},{"id":1491,"address":"5780-5790 Indiana Ave Winston-Salem NC","longitude":-80.260496,"latitude":36.146684},{"id":1492,"address":"665 N Spring St Winston-Salem NC","longitude":-80.253776,"latitude":36.102415},{"id":1493,"address":"531 S Hawthorne Rd Winston-Salem NC","longitude":-80.268529,"latitude":36.08504},{"id":1494,"address":"1220 W First St Winston-Salem NC","longitude":-80.260286,"latitude":36.093175},{"id":1495,"address":"1306-1318 Glade St Winston-Salem NC","longitude":-80.2621810833333,"latitude":36.0955805},{"id":1496,"address":"133 N Spring St Winston-Salem NC","longitude":-80.252002,"latitude":36.094705},{"id":1498,"address":"6336 HICKMAN RD WINDSOR HEIGHTS IA","longitude":-93.706239,"latitude":41.613642},{"id":1499,"address":"1410 Brewer Rd Winston-Salem NC","longitude":-80.262323,"latitude":36.05838},{"id":1500,"address":"3049 Nw 9Th Ave Wilton Manors FL","longitude":-80.154819,"latitude":26.16515},{"id":1501,"address":"2921 COLE RIDGE CIR WINSTON SALEM NC","longitude":-80.17862,"latitude":36.066975},{"id":1502,"address":"1250 73RD ST WINDSOR HEIGHTS IA","longitude":-93.718815,"latitude":41.60145},{"id":1503,"address":"401 Sterlingworth St Windsor NC","longitude":-76.953249,"latitude":35.99975},{"id":1504,"address":"4190 TRACE VIEW DR WINSTON SALEM NC","longitude":-80.27369,"latitude":36.14717},{"id":1505,"address":"1 RALEIGH CT  WINCHESTER VA","longitude":-78.15269,"latitude":39.18383},{"id":1507,"address":"10305 SW WILSONVILLE RD WILSONVILLE OR","longitude":-122.782922,"latitude":45.303965},{"id":1508,"address":"11395 SW TOULOUSE ST WILSONVILLE OR","longitude":-122.79407,"latitude":45.30948},{"id":1509,"address":"2201 NE 14TH AVE APT 1-8 WILTON MANORS FL","longitude":-80.12978,"latitude":26.15622},{"id":1510,"address":"211 Kenan St W Wilson NC","longitude":-77.915932,"latitude":35.725474},{"id":1511,"address":"600 Nash St NE Wilson NC","longitude":-77.91587,"latitude":35.732457},{"id":1512,"address":"10460 SW WILSONVILLE RD  WILSONVILLE OR","longitude":-122.78454,"latitude":45.30266},{"id":1513,"address":"500 ALLSTON CIR  WINCHESTER VA","longitude":-78.17586,"latitude":39.13952},{"id":1514,"address":"3802-3818 Chase Rd Wilson NC","longitude":-77.9559010454545,"latitude":35.763361},{"id":1515,"address":"503-507 Vance St Wilson NC","longitude":-79.1816105,"latitude":35.4721055},{"id":1516,"address":"29230 SW PARKWAY CT WILSONVILLE OR","longitude":-122.764056,"latitude":45.30852},{"id":1517,"address":"2509 Nw 9Th Ave Wilton Manors FL","longitude":-80.154815,"latitude":26.158696},{"id":1518,"address":"1703-1707 Augusta Cir SE Wilson NC","longitude":-77.89698,"latitude":35.706109},{"id":1519,"address":"2110 Smallwood St Wilson NC","longitude":-77.94102,"latitude":35.707251},{"id":1520,"address":"210 Red Cross St Wilmington NC","longitude":-77.947547,"latitude":34.240918},{"id":1521,"address":"504-506 Pickett St SW Wilson NC","longitude":-77.930188,"latitude":35.714769},{"id":1523,"address":"4550 Atrium Ct Wilmington NC","longitude":-77.827969,"latitude":34.258991},{"id":1524,"address":"14 Grace St Wilmington NC","longitude":-77.949971,"latitude":34.238601},{"id":1525,"address":"1519 Lipscomb Rd E Wilson NC","longitude":-77.887428,"latitude":35.721999},{"id":1527,"address":"215 Red Cross St Wilmington NC","longitude":-77.947314,"latitude":34.241345},{"id":1528,"address":"5936 Market St Wilmington NC","longitude":-77.853956,"latitude":34.24922},{"id":1529,"address":"408 Maides Ave Wilmington NC","longitude":-77.901543,"latitude":34.244753},{"id":1506,"address":"9425 SW TAUCHMAN ST WILSONVILLE OR","longitude":-122.773614,"latitude":45.294755},{"id":1497,"address":"4544 June Ave Winston-Salem NC","longitude":-80.32098,"latitude":36.15639},{"id":1522,"address":"30460 SW RUTH ST WILSONVILLE OR","longitude":-122.763231,"latitude":45.298991},{"id":1526,"address":"1014 S 7th St Wilmington NC","longitude":-77.93927,"latitude":34.22268},{"id":1532,"address":"4505-4537 Yester Oak Dr Wilmington NC","longitude":-77.888909,"latitude":34.2482155},{"id":1533,"address":"724 S Kerr Ave Wilmington NC","longitude":-77.886128,"latitude":34.22427},{"id":1534,"address":"119-121 Chestnut St Wilmington NC","longitude":-77.9284845625,"latitude":34.2395045},{"id":1535,"address":"811 Elance Moore Ln Wilmington NC","longitude":-77.936301,"latitude":34.224135},{"id":1536,"address":"33400 VINE ST WILLOWICK OH","longitude":-82.659821,"latitude":38.519464},{"id":1538,"address":"3706 Carolina Beach Rd Wilmington NC","longitude":-77.92866,"latitude":34.177805},{"id":1539,"address":"210 Marguerite Ave Wilmerding PA","longitude":-79.806777,"latitude":40.392761},{"id":1540,"address":"3472 Sharon Rd West Middlesex PA","longitude":-80.45753,"latitude":41.17918},{"id":1541,"address":"6365 SW 8TH ST WEST MIAMI FL","longitude":-80.299177,"latitude":25.763233},{"id":1542,"address":"1734 BENNETT DR WEST DES MOINES IA","longitude":-93.729427,"latitude":41.56431},{"id":1543,"address":"313 LINCOLN ST WEST DES MOINES IA","longitude":-93.70526,"latitude":41.567965},{"id":1544,"address":"4050 ROYER RD TOLEDO OH","longitude":-83.636741,"latitude":41.69258},{"id":1545,"address":"2241 W LASKEY RD TOLEDO OH","longitude":-83.598245,"latitude":41.70635},{"id":1546,"address":"612 Hillsborough St Chapel Hill NC","longitude":-79.051622,"latitude":35.924035},{"id":1547,"address":"110 S ROBERSON ST APT 9 CHAPEL HILL NC","longitude":-79.063071,"latitude":35.910677},{"id":1549,"address":"176 W CAR DR CHAGRIN FALLS OH","longitude":-81.3802,"latitude":41.43357},{"id":1550,"address":"1101 Auburn Dr, Castle Rock, Co 80109 Castle Rock CO","longitude":-104.903503,"latitude":39.401957},{"id":1551,"address":"6600 S Vine St, Centennial, Co 80121 Centennial CO","longitude":-104.96074,"latitude":39.58944},{"id":1552,"address":"2 AMITY CT CHAPEL HILL NC","longitude":-79.061329,"latitude":35.912978},{"id":1553,"address":"181 W CAR DR CHAGRIN FALLS OH","longitude":-81.380728,"latitude":41.432601},{"id":1555,"address":"4931 N CAPITOL ST  WASHINGTON DC","longitude":-77.008403,"latitude":38.950445},{"id":1556,"address":"220 2ND ST  WASHINGTON DC","longitude":-77.00317,"latitude":38.886743},{"id":1558,"address":"1434 SOMERSET PL  WASHINGTON DC","longitude":-77.034825,"latitude":38.966628},{"id":1561,"address":"1311 MADISON ST  WASHINGTON DC","longitude":-77.030348,"latitude":38.958621},{"id":1562,"address":"6634 GEORGIA AVE NW WASHINGTON DC","longitude":-77.02747,"latitude":38.97101},{"id":1563,"address":"2384-2386 CHAMPLAIN ST  WASHINGTON DC","longitude":-77.04086,"latitude":38.920935},{"id":1564,"address":"589 COLUMBIA RD  WASHINGTON DC","longitude":-77.02047,"latitude":38.928619},{"id":1565,"address":"3741-3745 E Market St Warren OH","longitude":-80.84269,"latitude":41.2357},{"id":1568,"address":"301 HAMILTON ST  WASHINGTON DC","longitude":-77.016225,"latitude":38.953441},{"id":1569,"address":"6980 MAPLE ST  WASHINGTON DC","longitude":-76.995258,"latitude":38.883487},{"id":1570,"address":"1317 K ST  WASHINGTON DC","longitude":-77.04672,"latitude":38.91063},{"id":1571,"address":"235 2ND ST  WASHINGTON DC","longitude":-77.003073,"latitude":38.892915},{"id":1531,"address":"4013 Wilshire Blvd Wilmington NC","longitude":-77.889402,"latitude":34.222578},{"id":1548,"address":"1521 E Franklin St Chapel Hill NC","longitude":-79.032357,"latitude":35.932975},{"id":1557,"address":"5210-5212 E ST  WASHINGTON DC","longitude":-77.043694,"latitude":38.89618},{"id":1559,"address":"1433 BELMONT ST  WASHINGTON DC","longitude":-77.033348,"latitude":38.920775},{"id":1560,"address":"350 U ST  WASHINGTON DC","longitude":-77.001273,"latitude":38.917195},{"id":1567,"address":"5223 4TH ST  WASHINGTON DC","longitude":-77.000524,"latitude":38.954538},{"id":1566,"address":"1435 SHERIDAN ST  WASHINGTON DC","longitude":-77.034826,"latitude":38.966355},{"id":1573,"address":"1400 ASPEN ST  WASHINGTON DC","longitude":-77.033804,"latitude":38.97207},{"id":1574,"address":"1826 VERNON ST  WASHINGTON DC","longitude":-77.04278,"latitude":38.91676},{"id":1575,"address":"5311 Cedar Green Walkertown NC","longitude":-80.167804,"latitude":36.21411},{"id":1576,"address":"860 STADIUM DR WAKE FOREST NC","longitude":-78.524119,"latitude":35.989487},{"id":1578,"address":"249-271 Folsom St Warren OH","longitude":-80.847,"latitude":41.2771},{"id":1579,"address":"1634 S County Farm Rd Warsaw IN","longitude":-85.85028,"latitude":41.2106},{"id":1580,"address":"207-261 Smokerise Dr Wadsworth OH","longitude":-81.724969,"latitude":41.052608},{"id":1581,"address":"366-370 W Oak Ave Wake Forest NC","longitude":-78.509659,"latitude":35.9922045},{"id":1582,"address":"2610 71ST CIR VERO BEACH FL","longitude":-80.47341,"latitude":27.64709},{"id":1583,"address":"743 Mauro Cir Warren OH","longitude":-80.767897,"latitude":41.204538},{"id":1584,"address":"501 N ARDMORE AVE 57 VILLA PARK IL","longitude":-87.97835,"latitude":41.90022},{"id":1586,"address":"173-185 Mills St Wadsworth OH","longitude":-81.7331598563218,"latitude":41.023885},{"id":1587,"address":"15601 SE Mill Plain Blvd Vancouver WA","longitude":-122.51163,"latitude":45.6156},{"id":1588,"address":"15425 E Mission Ave Veradale WA","longitude":-117.19703,"latitude":47.667034},{"id":1589,"address":"1443 SPRING RD  WASHINGTON DC","longitude":-77.035378,"latitude":38.937686},{"id":1590,"address":"21170 CIVIC CENTER RD WARRENSVILLE HEIGHTS OH","longitude":-81.5297,"latitude":41.44143},{"id":1591,"address":"5061 NEW HAMPSHIRE AVE  WASHINGTON DC","longitude":-77.012303,"latitude":38.951969},{"id":1592,"address":"2205 NE 129th St Vancouver WA","longitude":-122.6485,"latitude":45.714417},{"id":1593,"address":"1505 40th Ave Vero Beach FL","longitude":-80.42699,"latitude":27.6293},{"id":1594,"address":"3613 E 17TH ST VANCOUVER WA","longitude":-122.632279,"latitude":45.633285},{"id":1595,"address":"17429 Vashon Hwy SW Vashon WA","longitude":-122.460872,"latitude":47.448378},{"id":1596,"address":"7701 HICKMAN RD URBANDALE IA","longitude":-93.724823,"latitude":41.616114},{"id":1597,"address":"2409 E 16TH ST VANCOUVER WA","longitude":-122.644782,"latitude":45.63302},{"id":1598,"address":"900 SE Chkalov Dr Vancouver WA","longitude":-122.553954,"latitude":45.614988},{"id":1599,"address":"6811 LAKEWOOD DR W UNIVERSITY PLACE WA","longitude":-122.50809,"latitude":47.19584},{"id":2692,"address":"12800 105TH AVE E PUYALLUP WA","longitude":-122.2892,"latitude":47.1397},{"id":2693,"address":"6101 89TH STREET CT E PUYALLUP WA","longitude":-122.35293,"latitude":47.17485},{"id":2694,"address":"344 7TH ST SE PUYALLUP WA","longitude":-122.286787,"latitude":47.18915},{"id":2695,"address":"319 2ND ST NE PUYALLUP WA","longitude":-122.291787,"latitude":47.19376},{"id":2696,"address":"802 7TH ST SW PUYALLUP WA","longitude":-122.304191,"latitude":47.18511},{"id":2697,"address":"1100 7TH AVE  PUYALLUP WA","longitude":-122.279565,"latitude":47.18577},{"id":2698,"address":"215 23RD AVE  PUYALLUP WA","longitude":-122.2916,"latitude":47.17001},{"id":2699,"address":"921 12TH AVE  PUYALLUP WA","longitude":-122.282043,"latitude":47.181175},{"id":1600,"address":"409 11TH ST  UNION CITY NJ","longitude":-74.037369,"latitude":40.758371},{"id":1585,"address":"4821 NE 110TH AVE VANCOUVER WA","longitude":-122.558921,"latitude":45.657414},{"id":1602,"address":"6100 NE Fourth Plain Blvd Vancouver WA","longitude":-122.609499,"latitude":45.64374},{"id":1603,"address":"7623 27TH ST W UNIVERSITY PLACE WA","longitude":-122.540015,"latitude":47.235725},{"id":1604,"address":"300 3RD ST  WASHINGTON DC","longitude":-77.00182,"latitude":38.885914},{"id":1605,"address":"6728 FOUNTAINS BLVD WEST CHESTER OH","longitude":-84.40119,"latitude":39.349272},{"id":1606,"address":"121 E 2nd St Washington NC","longitude":-77.053602,"latitude":35.54253},{"id":1607,"address":"12294 Bannock St. Westminster CO","longitude":-104.990144,"latitude":39.918168},{"id":1608,"address":"1601 N Congress Ave. West Palm Beach FL","longitude":-80.087215,"latitude":26.700155},{"id":1611,"address":"214 Marsteller St West Lafayette IN","longitude":-86.913399,"latitude":40.421655},{"id":1612,"address":"585 HICKORY HILLS BLVD WHITES CREEK TN","longitude":-86.799119,"latitude":36.284855},{"id":1615,"address":"PIN OAK DR  WILLARD OH","longitude":-82.7275904525114,"latitude":41.041225},{"id":1617,"address":"14910 Orchard Pkwy, Westminster, Co 80023 Westminster CO","longitude":-104.992789,"latitude":39.967115},{"id":1618,"address":"121-135 Bevonne Ct West Milton OH","longitude":-84.324325,"latitude":39.946599},{"id":1619,"address":"2800 W 116Th Pl, Westminster, Co 80234 Westminster CO","longitude":-105.022697,"latitude":39.907967},{"id":1620,"address":"4700 LAKES EDGE WEST CHESTER OH","longitude":-84.46305,"latitude":39.35421},{"id":1621,"address":"1650 Crescent Ridge Blvd Westerville OH","longitude":-82.9727,"latitude":40.13308},{"id":1622,"address":"1008 MONROE ST  WASHINGTON DC","longitude":-77.027962,"latitude":38.932735},{"id":1623,"address":"140 Alderbrook Cir Washington NC","longitude":-77.050528,"latitude":35.56021},{"id":1624,"address":"200 WILMINGTON PL  WASHINGTON DC","longitude":-77.00211,"latitude":38.83625},{"id":1625,"address":"1400 SOMERSET PL  WASHINGTON DC","longitude":-77.033829,"latitude":38.966676},{"id":1626,"address":"119 D ST  WASHINGTON DC","longitude":-77.00499,"latitude":38.88489},{"id":1627,"address":"810 FOREST ST 846   CO","longitude":-104.92674,"latitude":39.72959},{"id":1628,"address":"1825 40th Ave Vero Beach FL","longitude":-80.427007,"latitude":27.63528},{"id":1630,"address":"320 S FRANKLIN ST WAKE FOREST NC","longitude":-78.50775,"latitude":35.973316},{"id":1631,"address":"210 S Sullivan Rd Veradale WA","longitude":-117.197163,"latitude":47.654745},{"id":1632,"address":"1531 STUYVESANT AVE  UNION NJ","longitude":-74.259934,"latitude":40.707638},{"id":1633,"address":"4114 Bridgeport Way W University Place WA","longitude":-122.537535,"latitude":47.219393},{"id":1634,"address":"4020 MAYFAIR RD #4076 UNIONTOWN OH","longitude":-81.43811,"latitude":40.95724},{"id":1635,"address":"6628 SOUTH AVE UNION CITY GA","longitude":-84.553037,"latitude":33.574885},{"id":1636,"address":"18101 SE 6th Way Vancouver WA","longitude":-122.486342,"latitude":45.61655},{"id":1637,"address":"2602 CASCADE PL W #2618 UNIVERSITY PLACE WA","longitude":-122.533355,"latitude":47.236797},{"id":1639,"address":"3411 BRIDGEPORT WAY W UNIVERSITY PLACE WA","longitude":-122.536268,"latitude":47.228405},{"id":1640,"address":"2706 CRYSTAL SPRINGS RD W UNIVERSITY PLACE WA","longitude":-122.547971,"latitude":47.234818},{"id":1610,"address":"219 S Kerr Ave Wilmington NC","longitude":-77.886527,"latitude":34.23771},{"id":1613,"address":"515-527 N Grant St West Lafayette IN","longitude":-86.908066,"latitude":40.425869},{"id":1614,"address":"511 COUNTY ROAD 309  WELAKA FL","longitude":-81.672692,"latitude":29.489471},{"id":1629,"address":"1018 Wait Ave Wake Forest NC","longitude":-78.479143,"latitude":35.967892},{"id":1638,"address":"7423 HENDERSON BLVD SE TUMWATER WA","longitude":-122.8867,"latitude":46.97964},{"id":1643,"address":"11801 NE 65th St Vancouver WA","longitude":-122.55125,"latitude":45.669613},{"id":1644,"address":"5962 E 33RD CT  TULSA OK","longitude":-95.909947,"latitude":36.115755},{"id":1645,"address":"502-506 Penn Ave Turtle Creek PA","longitude":-79.8283,"latitude":40.40503},{"id":1647,"address":"6333 S 91ST AVE TULSA OK","longitude":-95.87601,"latitude":36.0692},{"id":1650,"address":"4733 S HARVARD AVE  TULSA OK","longitude":-96.01565,"latitude":36.08242},{"id":1652,"address":"6321 E 9TH ST  TULSA OK","longitude":-96.672199,"latitude":35.971228},{"id":1653,"address":"5710 S 152ND ST TUKWILA WA","longitude":-122.26212,"latitude":47.46708},{"id":1656,"address":"3445 S 144TH ST TUKWILA WA","longitude":-122.28791,"latitude":47.47392},{"id":1658,"address":"925 17TH AVE E TUSCALOOSA AL","longitude":-87.514324,"latitude":33.205025},{"id":1659,"address":"14801 INTERURBAN AVE S TUKWILA WA","longitude":-122.25432,"latitude":47.47039},{"id":1664,"address":"400 CHESAPEAKE ST SE WASHINGTON DC","longitude":-77.000251,"latitude":38.82939},{"id":1666,"address":"7250 NEWTON ST WESTMINSTER CO","longitude":-105.036963,"latitude":39.82849},{"id":1667,"address":"3424-3438 Broad St Wilmington NC","longitude":-77.9029415,"latitude":34.2356015},{"id":1668,"address":"6350 W 38Th Ave, Wheat Ridge, Co 80033 Wheat Ridge CO","longitude":-105.06651,"latitude":39.76746},{"id":1669,"address":"136 S Chauncey Ave West Lafayette IN","longitude":-86.907077,"latitude":40.422335},{"id":1670,"address":"828 12TH ST WEST DES MOINES IA","longitude":-93.632165,"latitude":41.591754},{"id":1671,"address":"908 Center St Wilkinsburg PA","longitude":-79.881917,"latitude":40.442206},{"id":1672,"address":"7120 HOOKER ST  WESTMINSTER CO","longitude":-105.027622,"latitude":39.82586},{"id":1673,"address":"7131 Hooker St. Westminster CO","longitude":-105.028293,"latitude":39.825855},{"id":1674,"address":"3595 CEDAROAK DR WEST LINN OR","longitude":-122.640992,"latitude":45.38877},{"id":1675,"address":"234 Middle Sound Loop Rd Wilmington NC","longitude":-77.816277,"latitude":34.269669},{"id":1676,"address":"245 Shady Banks Rd Washington NC","longitude":-76.985061,"latitude":35.497039},{"id":1677,"address":"1497 W 2320 S WEST VALLEY UT","longitude":-111.934665,"latitude":40.72058},{"id":1678,"address":"1117 S SOUTH ST WILMINGTON OH","longitude":-83.832236,"latitude":39.430985},{"id":1681,"address":"1601 N Congress Ave. West Palm Beach  FL","longitude":-80.087215,"latitude":26.700155},{"id":1682,"address":"4471 LAWN AVE WESTERN SPRINGS IL","longitude":-87.89901,"latitude":41.810035},{"id":1660,"address":"15036 MACADAM RD S TUKWILA WA","longitude":-122.26651,"latitude":47.46789},{"id":1663,"address":"5005 CALL PL  WASHINGTON DC","longitude":-118.388042,"latitude":46.049176},{"id":1685,"address":"7130 LOWELL BLVD WESTMINSTER CO","longitude":-105.033897,"latitude":39.82636},{"id":1686,"address":"14828 MILITARY RD  TUKWILA WA","longitude":-122.28841,"latitude":47.46952},{"id":1687,"address":"8310 Clay St, Westminster, Co 80031 Westminster CO","longitude":-105.019279,"latitude":39.847775},{"id":1688,"address":"12294 Bannock St Westminster Co","longitude":-104.990144,"latitude":39.918168},{"id":1689,"address":"11 CLAIRE CT WEST BABYLON NY","longitude":-73.34379,"latitude":40.70451},{"id":1690,"address":"7850 S Rita Rd Tucson AZ","longitude":-110.804392,"latitude":32.109706},{"id":1691,"address":"189-195 Main St Washington NC","longitude":-78.249684,"latitude":35.957109},{"id":1693,"address":"7481 Quitman St, Westminster, Co 80030 Westminster CO","longitude":-105.042432,"latitude":39.83236},{"id":1695,"address":"433 N GRANDE AVE TUCSON AZ","longitude":-110.99149,"latitude":32.22766},{"id":1697,"address":"7999 BAYSHORE DR TREASURE ISLAND FL","longitude":-82.75798,"latitude":27.74506},{"id":1703,"address":"4901 Amy Dr Wilmington NC","longitude":-77.88322,"latitude":34.23658},{"id":1704,"address":"414-422 Vine St West Lafayette IN","longitude":-86.900844,"latitude":40.466424},{"id":1705,"address":"1901 LYONS RD Tucson FL","longitude":-80.1872,"latitude":26.25448},{"id":1706,"address":"11750 CAPRI CIR S TREASURE ISLAND FL","longitude":-82.774412,"latitude":27.77684},{"id":1707,"address":"40 W ROGER RD TUCSON AZ","longitude":-110.97355,"latitude":32.27948},{"id":1709,"address":"3351 W LASKEY RD TOLEDO OH","longitude":-83.62577,"latitude":41.706025},{"id":1711,"address":"109 N Kerr Ave Wilmington NC","longitude":-77.89401,"latitude":34.24409},{"id":1712,"address":"405 W ALEXIS RD TOLEDO OH","longitude":-83.555452,"latitude":41.72127},{"id":1713,"address":"1912 S ST  WASHINGTON DC","longitude":-77.0441,"latitude":38.913875},{"id":1714,"address":"6617 SW 10TH ST WEST MIAMI FL","longitude":-80.30307,"latitude":25.7615},{"id":1715,"address":"1915 W WATERS AVE TAMPA FL","longitude":-82.479727,"latitude":28.025825},{"id":1716,"address":"4205 S MANHATTAN AVE TAMPA FL","longitude":-82.518777,"latitude":27.903725},{"id":1717,"address":"11613 N 50TH ST TAMPA FL","longitude":-82.40098,"latitude":28.05296},{"id":1719,"address":"820 2ND ST WEST PALM BEACH FL","longitude":-80.060384,"latitude":26.715249},{"id":1720,"address":"1 N BROADWAY TACOMA WA","longitude":-93.72551,"latitude":43.746693},{"id":1721,"address":"3914 N 27TH ST TACOMA WA","longitude":-122.489867,"latitude":47.27174},{"id":1722,"address":"801 101ST ST E TACOMA WA","longitude":-122.420701,"latitude":47.16576},{"id":1723,"address":"126 121ST ST S TACOMA WA","longitude":-122.432911,"latitude":47.14705},{"id":1724,"address":"1741 LANIER PL  WASHINGTON DC","longitude":-77.040984,"latitude":38.925455},{"id":1699,"address":"1240 RHODE ISLAND AVE  WASHINGTON DC","longitude":-76.988265,"latitude":38.924021},{"id":1710,"address":"201-222 Durango Pl Wilmington NC","longitude":-77.8830665,"latitude":34.2380375},{"id":1701,"address":"742 E LEE ST TUCSON AZ","longitude":-110.96023,"latitude":32.24144},{"id":1708,"address":"10126 GULF BLVD TREASURE ISLAND FL","longitude":-82.766667,"latitude":27.761845},{"id":1700,"address":"4011 36TH CT WEST PALM BEACH FL","longitude":-80.067882,"latitude":26.74833},{"id":1718,"address":"13136 N 20TH ST  TAMPA FL","longitude":-82.43723,"latitude":28.0679},{"id":1726,"address":"1315 S Flagler Dr. West Palm Beach  FL","longitude":-80.050933,"latitude":26.701485},{"id":1727,"address":"3650 RIO TER TITUSVILLE FL","longitude":-80.799299,"latitude":28.572552},{"id":1730,"address":"2740 WESTMAR CT TOLEDO OH","longitude":-83.670305,"latitude":41.671675},{"id":1731,"address":"12123 SW 69th Ave Tigard OR","longitude":-122.748074,"latitude":45.432617},{"id":2708,"address":"768 W HEATHER LN PROVO UT","longitude":-111.67221,"latitude":40.22368},{"id":2710,"address":"2061-2111 Smokey View Blvd Powell OH","longitude":-83.07248,"latitude":40.13486},{"id":2711,"address":"32 Dancy St Princeville NC","longitude":-77.5295965,"latitude":35.8879365},{"id":2713,"address":"84 S Liberty St Powell OH","longitude":-83.074501,"latitude":40.156037},{"id":2716,"address":"10215 SW Hall Blvd Portland OR","longitude":-122.766059,"latitude":45.446324},{"id":2717,"address":"7474 NE M L King Blvd Portland OR","longitude":-122.660794,"latitude":45.576918},{"id":2718,"address":"933 NW 25th Ave Portland OR","longitude":-122.702893,"latitude":45.529498},{"id":2719,"address":"1320 NE 106th Ave Portland OR","longitude":-122.553349,"latitude":45.532365},{"id":2720,"address":"6402-6410 NE Halsey St Portland OR","longitude":-122.597099,"latitude":45.532822},{"id":2721,"address":"3514 NE Sandy Blvd Portland OR","longitude":-122.627587,"latitude":45.532672},{"id":2723,"address":"8904 N Ivanhoe St Portland OR","longitude":-122.757634,"latitude":45.591393},{"id":2724,"address":"11084 SE Oak St Portland OR","longitude":-122.625286,"latitude":45.441127},{"id":2725,"address":"12201 NE Wasco St Portland OR","longitude":-122.53365,"latitude":45.53212},{"id":2726,"address":"4632 Sw Vermont St Portland OR","longitude":-122.72493,"latitude":45.476102},{"id":2727,"address":"3033 SE Monroe St Portland OR","longitude":-122.63101,"latitude":45.445588},{"id":2728,"address":"10209 SE Division St Portland OR","longitude":-122.558444,"latitude":45.505306},{"id":2729,"address":"6110 N Lombard St Portland OR","longitude":-122.7305,"latitude":45.584516},{"id":2730,"address":"11203 SE Sunnyside Rd Portland OR","longitude":-122.54976,"latitude":45.433798},{"id":2731,"address":"607 NE Lombard St Portland OR","longitude":-122.659072,"latitude":45.577436},{"id":2732,"address":"550 SW COLLEGE ST PORTLAND OR","longitude":-122.683301,"latitude":45.509275},{"id":2733,"address":"4922 N ALBINA AVE PORTLAND OR","longitude":-122.674738,"latitude":45.558731},{"id":2734,"address":"4509 SW VERMONT ST PORTLAND OR","longitude":-122.72364,"latitude":45.47657},{"id":2736,"address":"5536 N MARYLAND AVE PORTLAND OR","longitude":-122.68083,"latitude":45.56318},{"id":2738,"address":"2049 NW IRVING ST #2063 PORTLAND OR","longitude":-122.693628,"latitude":45.527963},{"id":2739,"address":"1101 SW 18TH AVE PORTLAND OR","longitude":-122.692396,"latitude":45.519311},{"id":2740,"address":"14302 E BURNSIDE ST #14360 PORTLAND OR","longitude":-122.51524,"latitude":45.52185},{"id":1729,"address":"11140 SW 68th Pky Tigard OR","longitude":-122.746697,"latitude":45.439184},{"id":2712,"address":"113 Wild Geese Ct Powells Point NC","longitude":-75.839948,"latitude":36.1385},{"id":2714,"address":"20669 Bond Rd Poulsbo WA","longitude":-122.645105,"latitude":47.7506},{"id":2715,"address":"19503 7th Ave Poulsbo WA","longitude":-122.641993,"latitude":47.739341},{"id":2722,"address":"800 SW 13th Ave Portland OR","longitude":-122.685346,"latitude":45.51976},{"id":2735,"address":"1506 SE STARK ST PORTLAND OR","longitude":-122.650379,"latitude":45.519114},{"id":2737,"address":"3030 SE PINE ST PORTLAND OR","longitude":-122.634391,"latitude":45.520405},{"id":1733,"address":"14300 SW Pacific Hwy Tigard OR","longitude":-122.788597,"latitude":45.416744},{"id":1735,"address":"225 MOHAWK ST TIFFIN OH","longitude":-83.17726,"latitude":41.09859},{"id":1737,"address":"851 E Highway 224, Thornton, Co 80229 Thornton CO","longitude":-104.976258,"latitude":39.824425},{"id":1738,"address":"1620 Coronado Pkwy S, Denver, Co 80229 Thornton CO","longitude":-104.9696,"latitude":39.84176},{"id":1739,"address":"2525 E 104Th Ave, Thornton, Co 80233 Thornton CO","longitude":-104.953092,"latitude":39.8868},{"id":1740,"address":"649 AMERICAN LEGION DR TEANECK NJ","longitude":-74.022178,"latitude":40.886045},{"id":1741,"address":"9385 SW Locust St Tigard OR","longitude":-122.773587,"latitude":45.4471},{"id":1744,"address":"14540 N NEBRASKA AVE TAMPA FL","longitude":-82.45309,"latitude":28.0803},{"id":1747,"address":"6603 ALICIA AVE TAMPA FL","longitude":-82.46839,"latitude":28.0064},{"id":1749,"address":"1503 E 142ND AVE TAMPA FL","longitude":-82.44234,"latitude":28.07539},{"id":1752,"address":"6400 N ARMENIA AVE TAMPA FL","longitude":-82.48395,"latitude":28.0059},{"id":1755,"address":"194 FORT LEE RD  TEANECK NJ","longitude":-74.018658,"latitude":40.87233},{"id":1757,"address":"4115 E CARNEGIE CT TAMPA FL","longitude":-82.412445,"latitude":27.98987},{"id":1758,"address":"1325 W THARPE ST TALLAHASSEE FL","longitude":-84.307814,"latitude":30.462415},{"id":1761,"address":"140 Love Mill Rd Whiteville NC","longitude":-78.721955,"latitude":34.306358},{"id":1762,"address":"1524 S J ST TACOMA WA","longitude":-122.449565,"latitude":47.24719},{"id":1763,"address":"12712 C ST S TACOMA WA","longitude":-122.43773,"latitude":47.14138},{"id":1764,"address":"85-95 Illinois Ave Westerville OH","longitude":-82.918235,"latitude":40.116215},{"id":1765,"address":"2317 W BRISTOL AVE TAMPA FL","longitude":-82.48477,"latitude":27.9354},{"id":1766,"address":"8014 TOMMY CT TAMPA FL","longitude":-82.366097,"latitude":27.939826},{"id":1767,"address":"3602 S 19th St Tacoma WA","longitude":-122.483918,"latitude":47.242488},{"id":1769,"address":"2121 S 19th St Tacoma WA","longitude":-122.465145,"latitude":47.242992},{"id":1770,"address":"707 S TO 709 S I ST #709 TACOMA WA","longitude":-122.449697,"latitude":47.256011},{"id":1771,"address":"410 N I ST  TACOMA WA","longitude":-122.455365,"latitude":47.26317},{"id":1772,"address":"2 Sherwood Park Dr Swannanoa NC","longitude":-82.42861,"latitude":35.59591},{"id":1773,"address":"100 Bailey Dr Summerville SC","longitude":-80.163853,"latitude":32.99286},{"id":1746,"address":"3212 W KENNEDY BLVD TAMPA FL","longitude":-82.496636,"latitude":27.944496},{"id":1742,"address":"4900 N MACDILL AVE TAMPA FL","longitude":-82.493962,"latitude":27.990195},{"id":1745,"address":"2301 E SLIGH AVE TAMPA FL","longitude":-82.433185,"latitude":28.010095},{"id":1748,"address":"13710 N 19TH ST TAMPA FL","longitude":-82.438937,"latitude":28.07194},{"id":1750,"address":"717 S ORLEANS AVE TAMPA FL","longitude":-82.474032,"latitude":27.93627},{"id":1751,"address":"12120 Colorado Blvd, Thornton, Co 80241 Thornton CO","longitude":-104.944525,"latitude":39.929908},{"id":1753,"address":"1609 Barlow Rd Tarboro NC","longitude":-77.560774,"latitude":35.893912},{"id":1754,"address":"13702 N 42ND ST TAMPA FL","longitude":-82.4152,"latitude":28.071479},{"id":1756,"address":"2401 W MORRISON AVE TAMPA FL","longitude":-82.484612,"latitude":27.93426},{"id":1760,"address":"5581 TEEKA CT  WHITEHALL PA","longitude":-75.5022,"latitude":40.680769},{"id":1775,"address":"5378 SE Driftwood Ave Stuart FL","longitude":-80.19687,"latitude":27.13878},{"id":1776,"address":"450 E Washington St Stayton OR","longitude":-122.790839,"latitude":44.800554},{"id":1777,"address":"225 5TH AVE NE ST PETERSBURG FL","longitude":-82.632039,"latitude":27.777886},{"id":1778,"address":"500 5TH ST N ST PETERSBURG FL","longitude":-82.64086,"latitude":27.77782},{"id":1780,"address":"1339 Vester Ave Springfield OH","longitude":-83.783782,"latitude":39.963539},{"id":1781,"address":"2940 DERR RD SPRINGFIELD OH","longitude":-83.784036,"latitude":39.962841},{"id":1782,"address":"7305 BAY ST ST PETE BEACH FL","longitude":-82.74593,"latitude":27.743244},{"id":1783,"address":"1490 S Burnett Rd Springfield OH","longitude":-83.770814,"latitude":39.905465},{"id":1784,"address":"516 W Harding Springfield OH","longitude":-83.818006,"latitude":39.946534},{"id":1785,"address":"11715 E 4TH AVE SPOKANE VALLEY WA","longitude":-117.247403,"latitude":47.654495},{"id":1786,"address":"2211 N HOUK RD  SPOKANE VALLEY WA","longitude":-117.23622,"latitude":47.678015},{"id":1787,"address":"2039 N MERIDIAN RD TALLAHASSEE FL","longitude":-84.275725,"latitude":30.468945},{"id":1789,"address":"2055 THOMASVILLE RD  TALLAHASSEE FL","longitude":-84.266,"latitude":30.47045},{"id":1790,"address":"6815 INTERBAY BLVD TAMPA FL","longitude":-82.5075,"latitude":27.872405},{"id":1791,"address":"8306 BARRON ST  TAKOMA PARK MD","longitude":-76.998,"latitude":38.99247},{"id":1792,"address":"2616 MISSION RD TALLAHASSEE FL","longitude":-84.334072,"latitude":30.456855},{"id":1793,"address":"636 HOUSTON AVE  TAKOMA PARK MD","longitude":-77.00524,"latitude":38.98997},{"id":1795,"address":"1845 BELLE VUE WAY TALLAHASSEE FL","longitude":-84.312655,"latitude":30.437315},{"id":1796,"address":"1608 S J St Tacoma WA","longitude":-122.449357,"latitude":47.246449},{"id":1797,"address":"7811 Pacific Ave Tacoma WA","longitude":-122.433019,"latitude":47.186048},{"id":1798,"address":"4215 49th Ave NE Tacoma WA","longitude":-122.381348,"latitude":47.294763},{"id":1799,"address":"155 E DAVIS BLVD TAMPA FL","longitude":-82.454177,"latitude":27.928515},{"id":1800,"address":"502 54th Ave E Tacoma WA","longitude":-122.357348,"latitude":47.253414},{"id":1801,"address":"322 N G ST TACOMA WA","longitude":-122.453041,"latitude":47.26473},{"id":1802,"address":"7440 Pacific Ave Tacoma WA","longitude":-122.435434,"latitude":47.188896},{"id":1803,"address":"3719 OHIO AVE TAMPA FL","longitude":-82.505825,"latitude":27.880385},{"id":1804,"address":"1206 W 6TH AVE SPOKANE WA","longitude":-117.43023,"latitude":47.65069},{"id":1805,"address":"419 E HAWTHORNE RD SPOKANE WA","longitude":-117.403818,"latitude":47.751865},{"id":1806,"address":"3315 W BISMARK AVE SPOKANE WA","longitude":-117.461332,"latitude":47.712499},{"id":1807,"address":"201 SW Joan Jefferson Way Stuart FL","longitude":-80.256177,"latitude":27.199512},{"id":1808,"address":"10 George Dr Spencer IN","longitude":-86.75476,"latitude":39.284539},{"id":1809,"address":"3421 SE Cobia Way Stuart FL","longitude":-80.2070295,"latitude":27.138722},{"id":1811,"address":"9165 Collins Ave Surfside FL","longitude":-80.121325,"latitude":25.879371},{"id":1812,"address":"614 S OAKES ST TACOMA WA","longitude":-122.471601,"latitude":47.254875},{"id":1813,"address":"14350 HENSEL LN TAMPA FL","longitude":-82.434779,"latitude":28.077518},{"id":1815,"address":"5303 PARKER RD E SUMNER WA","longitude":-122.220397,"latitude":47.20892},{"id":1779,"address":"1311 Vester Ave Springfield OH","longitude":-83.784837,"latitude":39.963437},{"id":1788,"address":"2110 JACKSON BLUFF RD APT 1 TALLAHASSEE FL","longitude":-84.320361,"latitude":30.4348},{"id":1810,"address":"7611 PACIFIC AVE TACOMA WA","longitude":-122.433425,"latitude":47.18765},{"id":1816,"address":"4725 39TH AVE N ST PETERSBURG FL","longitude":-82.69826,"latitude":27.807622},{"id":1819,"address":"33 Sylvester Way Swannanoa NC","longitude":-82.440541,"latitude":35.593876},{"id":1820,"address":"2415 N CHERRY ST APT 3 SPOKANE VALLEY WA","longitude":-117.238127,"latitude":47.680285},{"id":1822,"address":"2713 N Argonne Rd Spokane WA","longitude":-117.283181,"latitude":47.682011},{"id":1823,"address":"1222 W LOCUST ST #1276 STAYTON OR","longitude":-122.80654,"latitude":44.8024},{"id":1824,"address":"214-220 S Pine St Summerville SC","longitude":-80.1798346,"latitude":33.0202638},{"id":1825,"address":"109 Carriage Pl Spindale NC","longitude":-81.933347,"latitude":35.348689},{"id":1826,"address":"327 34TH AVE N ST PETERSBURG FL","longitude":-82.637651,"latitude":27.80331},{"id":1827,"address":"807 Cherry Ln Statesville NC","longitude":-80.89892,"latitude":35.78048},{"id":1828,"address":"1115 WYATT AVE SE #1125 STAYTON OR","longitude":-122.80488,"latitude":44.808925},{"id":1829,"address":"2825 N 1st Ave Tucson AZ","longitude":-110.961723,"latitude":32.258343},{"id":1830,"address":"1402 EARNEST S BRAZILL ST TACOMA WA","longitude":-122.456102,"latitude":47.25032},{"id":1831,"address":"1341 E ALLEN RD TUCSON AZ","longitude":-110.95158,"latitude":32.27729},{"id":1832,"address":"2503 S I ST TACOMA WA","longitude":-122.445049,"latitude":47.2375},{"id":1833,"address":"9615 GULF BLVD TREASURE ISLAND FL","longitude":-82.76397,"latitude":27.75527},{"id":1834,"address":"1620 SW 257th Ave Troutdale OR","longitude":-122.39893,"latitude":45.530177},{"id":1836,"address":"1305 S G ST TACOMA WA","longitude":-122.445012,"latitude":47.25028},{"id":1837,"address":"7475 E Old Vail Rd Tucson AZ","longitude":-110.81286,"latitude":32.11572},{"id":1838,"address":"5917 E GOLF LINKS RD TUCSON AZ","longitude":-110.86353,"latitude":32.19282},{"id":1839,"address":"1576 E High St Springfield OH","longitude":-83.78574,"latitude":39.92131},{"id":1840,"address":"2820 E 53RD AVE SPOKANE WA","longitude":-117.369306,"latitude":47.605345},{"id":1841,"address":"500 S Stone St Spokane WA","longitude":-117.377698,"latitude":47.651225},{"id":1842,"address":"1033 N TACOMA AVE TACOMA WA","longitude":-122.461854,"latitude":47.26918},{"id":1843,"address":"2655 SE Carroll St Stuart FL","longitude":-80.21794,"latitude":27.14446},{"id":1845,"address":"3155 BURLINGTON AVE N ST PETERSBURG FL","longitude":-82.675985,"latitude":27.77401},{"id":1846,"address":"6010 N ATLANTIC ST SPOKANE WA","longitude":-117.412164,"latitude":47.712398},{"id":1847,"address":"1104 YAKIMA AVE TACOMA WA","longitude":-122.447795,"latitude":47.252255},{"id":1848,"address":"8701 4TH ST N ST PETERSBURG FL","longitude":-82.638233,"latitude":27.852099},{"id":1849,"address":"14515 A ST S TACOMA WA","longitude":-122.428379224359,"latitude":47.160081},{"id":1851,"address":"628 S Cowley St Spokane WA","longitude":-117.408557,"latitude":47.650144},{"id":1852,"address":"630 N PROSPECT ST TACOMA WA","longitude":-122.469396,"latitude":47.256445},{"id":1853,"address":"1304 N MCDONALD RD SPOKANE VALLEY WA","longitude":-117.22806,"latitude":47.6693},{"id":1854,"address":"3103 37TH ST N ST PETERSBURG FL","longitude":-82.683317,"latitude":27.800325},{"id":1857,"address":"4707 E UPRIVER DR STE R100 SPOKANE WA","longitude":-117.34104,"latitude":47.67806},{"id":1818,"address":"702 SE 10th St Stuart FL","longitude":-80.243576,"latitude":27.189754},{"id":1850,"address":"110 140TH ST S TACOMA WA","longitude":-122.432456,"latitude":47.129909},{"id":1855,"address":"104 M P Dr Stoneville NC","longitude":-79.904011,"latitude":36.455633},{"id":1858,"address":"701 FIELDCREST CIR STANLEY NC","longitude":-81.095487,"latitude":35.353338},{"id":1860,"address":"3320 6TH AVE TACOMA WA","longitude":-122.480466,"latitude":47.254955},{"id":1861,"address":"17977 WHITNEY RD STRONGSVILLE OH","longitude":-81.82536,"latitude":41.34256},{"id":1862,"address":"723 N J ST TACOMA WA","longitude":-122.460201,"latitude":47.264305},{"id":1863,"address":"103 Old Jims Branch Rd Swannanoa NC","longitude":-82.446035,"latitude":35.589545},{"id":1864,"address":"1416 N MCDONALD RD SPOKANE VALLEY WA","longitude":-117.228225,"latitude":47.66997},{"id":1865,"address":"524 SW Saint Lucie Cres Stuart FL","longitude":-80.258141,"latitude":27.196013},{"id":1867,"address":"56 Sweet Ln Spring Lake NC","longitude":-78.968668,"latitude":35.251668},{"id":1869,"address":"1425 N TO 1435 N PEARL ST TACOMA WA","longitude":-122.439875,"latitude":47.24958},{"id":1870,"address":"216 30TH AVE N ST PETERSBURG FL","longitude":-82.63754,"latitude":27.799144},{"id":1871,"address":"2400 15TH AVE S ST PETERSBURG FL","longitude":-82.665586,"latitude":27.755477},{"id":1872,"address":"725 Central Ave Summerville SC","longitude":-80.196384,"latitude":33.01615},{"id":1874,"address":"8910 COLLINS AVE  SURFSIDE FL","longitude":-80.12195,"latitude":25.875086},{"id":1875,"address":"4400 1ST ST N ST PETERSBURG FL","longitude":-82.634821,"latitude":27.812657},{"id":1876,"address":"5240 S PUGET SOUND AVE TACOMA WA","longitude":-122.482806,"latitude":47.20833},{"id":1878,"address":"5106 PARKER RD E SUMNER WA","longitude":-122.222195,"latitude":47.21017},{"id":1879,"address":"1204 Vercler Rd Spokane Valley WA","longitude":-117.234899,"latitude":47.6623455},{"id":1880,"address":"11401 E 4TH AVE  SPOKANE VALLEY WA","longitude":-117.251724,"latitude":47.65414},{"id":1882,"address":"105 143RD ST S TACOMA WA","longitude":-122.432246,"latitude":47.127904},{"id":1884,"address":"900 W 5th Ave Spokane WA","longitude":-117.426341,"latitude":47.651387},{"id":1885,"address":"2640 E THURSTON AVE SPOKANE WA","longitude":-117.37138,"latitude":47.61656},{"id":1886,"address":"7227 S WAPATO ST TACOMA WA","longitude":-122.46734,"latitude":47.191055},{"id":1888,"address":"137 KAHLE DR STATELINE NV","longitude":-119.940644,"latitude":38.97202},{"id":1889,"address":"1311 S 8TH ST  TACOMA WA","longitude":-122.455963,"latitude":47.254885},{"id":1891,"address":"1712 W 2ND AVE SPOKANE WA","longitude":-117.43761,"latitude":47.6547},{"id":1892,"address":"510 BAYVIEW DR NE ST PETERSBURG FL","longitude":-82.61099,"latitude":27.79983},{"id":1893,"address":"15408 E 4TH AVE  SPOKANE VALLEY WA","longitude":-117.197431,"latitude":47.65259},{"id":1894,"address":"5122 SE Lisbon Cir Stuart FL","longitude":-80.20903,"latitude":27.14371},{"id":1895,"address":"100 Lake Point Ave Summerville SC","longitude":-80.215372,"latitude":33.016135},{"id":1896,"address":"2510 Game Farm Rd Springfield OR","longitude":-123.032636,"latitude":44.071662},{"id":1898,"address":"200 WHITE CLIFFS CT SPRINGFIELD OH","longitude":-83.80315,"latitude":39.95794},{"id":1899,"address":"6208 N Colton St Spokane WA","longitude":-117.406726,"latitude":47.714581},{"id":1900,"address":"10211 E MAIN AVE SPOKANE VALLEY WA","longitude":-117.267533,"latitude":47.659465},{"id":1877,"address":"5701 21ST AVE N ST PETERSBURG FL","longitude":-82.7112,"latitude":27.79146},{"id":1887,"address":"200 Rural Hall Germanton Rd Summerfield NC","longitude":-80.293384,"latitude":36.240416},{"id":1897,"address":"800 BEACH DR NE ST PETERSBURG FL","longitude":-82.629942,"latitude":27.780641},{"id":1902,"address":"1398 Cavendish Ct Stuart FL","longitude":-80.25433,"latitude":27.22195},{"id":1903,"address":"42 SPRING CREST LN  STAUNTON VA","longitude":-79.08696,"latitude":38.081515},{"id":1904,"address":"12401 E Sinto Ave Spokane WA","longitude":-117.238247,"latitude":47.670441},{"id":1905,"address":"7300 Nw 30Th Pl Sunrise FL","longitude":-80.24731,"latitude":26.1637},{"id":1907,"address":"208 W 5th Ave Spokane WA","longitude":-117.415265,"latitude":47.651704},{"id":1909,"address":"9429-9461 Vista Ct Streetsboro OH","longitude":-81.357602,"latitude":41.2428885},{"id":1910,"address":"12 E ROCKWOOD BLVD  SPOKANE WA","longitude":-117.410678,"latitude":47.64595},{"id":1911,"address":"12 E 5th Ave Spokane WA","longitude":-117.410759,"latitude":47.651129},{"id":1912,"address":"2710 E 57th Ave Spokane WA","longitude":-117.370797,"latitude":47.601799},{"id":1913,"address":"5811 NW 17TH PL SUNRISE FL","longitude":-80.22839,"latitude":26.14826},{"id":1914,"address":"333 5TH ST S ST PETERSBURG FL","longitude":-82.64055,"latitude":27.767743},{"id":1915,"address":"405-424 Tolbert Ct Spring Lake NC","longitude":-78.986151,"latitude":35.1764715},{"id":1916,"address":"8301 GARLAND AVE  TAKOMA PARK MD","longitude":-77.000055,"latitude":38.993115},{"id":1917,"address":"725 2ND ST N ST PETERSBURG FL","longitude":-82.63534,"latitude":27.77971},{"id":1918,"address":"149 KAHLE DR STATELINE NV","longitude":-119.93958,"latitude":38.97198},{"id":1919,"address":"2750 OLD SAINT AUGUSTINE RD #45 TALLAHASSEE FL","longitude":-84.233237,"latitude":30.4236},{"id":1920,"address":"4725 N PASADENA LN SPOKANE WA","longitude":-117.28594,"latitude":47.7001},{"id":1921,"address":"2760 DWIGHT RD SPRINGFIELD OH","longitude":-83.76486,"latitude":39.93222},{"id":1924,"address":"315 W HOLLISTER ST STAYTON OR","longitude":-122.796198,"latitude":44.804745},{"id":1926,"address":"900 I ST SPARKS NV","longitude":-119.754764,"latitude":39.543482},{"id":1927,"address":"524 DR MARTIN LUTHER KING JR ST S ST PETERSBURG FL","longitude":-82.64633,"latitude":27.76508},{"id":1928,"address":"7310 150TH ST  TACOMA WA","longitude":-122.533954,"latitude":47.12014},{"id":1929,"address":"1942 RICHARDS PL SPARKS NV","longitude":-119.750321,"latitude":39.549575},{"id":1930,"address":"1648 N Howe St Southport NC","longitude":-78.02771,"latitude":33.94236},{"id":1931,"address":"190 Murray Hill Rd Southern Pines NC","longitude":-79.413783,"latitude":35.163701},{"id":1933,"address":"1650 Richards St Southern Pines NC","longitude":-79.415152,"latitude":35.162135},{"id":1934,"address":"5860 31ST ST N ST PETERSBURG FL","longitude":-82.6759,"latitude":27.82572},{"id":1935,"address":"1401 Seaside Rd Sunset Beach NC","longitude":-78.48606,"latitude":33.90535},{"id":1936,"address":"8989 Byron Ave Surfside FL","longitude":-80.123849,"latitude":25.875813},{"id":2741,"address":"19201 SE YAMHILL ST #19213 PORTLAND OR","longitude":-122.46501,"latitude":45.51646},{"id":2742,"address":"6411 N ALBINA AVE PORTLAND OR","longitude":-122.675199,"latitude":45.569329},{"id":2743,"address":"5820 SE MILWAUKIE AVE #5836 PORTLAND OR","longitude":-122.64914,"latitude":45.48048},{"id":2744,"address":"220 N HUMBOLDT ST PORTLAND OR","longitude":-122.66857,"latitude":45.55794},{"id":2745,"address":"12900 SE DIVISION ST PORTLAND OR","longitude":-122.53077,"latitude":45.50345},{"id":2746,"address":"707 NW 19TH AVE PORTLAND OR","longitude":-122.690738,"latitude":45.52797},{"id":1932,"address":"635 BAY ST NE ST PETERSBURG FL","longitude":-82.632321,"latitude":27.778779},{"id":1908,"address":"9651 N Nevada St Spokane WA","longitude":-117.395973,"latitude":47.744919},{"id":1938,"address":"314 E 9TH AVE SPOKANE WA","longitude":-117.40591,"latitude":47.64714},{"id":1939,"address":"1904 E SOUTH RIVERTON AVE SPOKANE WA","longitude":-117.38147,"latitude":47.67566},{"id":1940,"address":"500 N BENNETT ST SOUTHERN PINES NC","longitude":-79.387584,"latitude":35.17898},{"id":1941,"address":"1113 Richards St Southern Pines NC","longitude":-79.41127,"latitude":35.16916},{"id":1942,"address":"5880 SW 74TH TER SOUTH MIAMI FL","longitude":-80.28891,"latitude":25.701695},{"id":1943,"address":"7218 GREVILLA AVE  SOUTH PASADENA FL","longitude":-82.738855,"latitude":27.762715},{"id":1944,"address":"235 12TH AVE S SOUTH SAINT PAUL MN","longitude":-93.048455,"latitude":44.887915},{"id":1945,"address":"6238 SW 59TH PL SOUTH MIAMI FL","longitude":-80.291315,"latitude":25.712909},{"id":1946,"address":"6310 SW 79TH ST  SOUTH MIAMI FL","longitude":-80.295986,"latitude":25.697308},{"id":1947,"address":"640 NORTHERN RD SOUTH DAYTONA FL","longitude":-81.014565,"latitude":29.180028},{"id":1948,"address":"5950 SW 74TH ST SOUTH MIAMI FL","longitude":-80.290371,"latitude":25.70212},{"id":1949,"address":"400 W Columbus Rd South Charleston OH","longitude":-83.643758,"latitude":39.823546},{"id":1951,"address":"3571 Roy Farlow Rd Sophia NC","longitude":-79.914077,"latitude":35.8423},{"id":1952,"address":"111 Chelsea Dr Snow Hill NC","longitude":-77.653515,"latitude":35.43624},{"id":1953,"address":"112 ALDER AVE SNOHOMISH WA","longitude":-122.088409,"latitude":47.909465},{"id":1954,"address":"726 AVENUE B SNOHOMISH WA","longitude":-122.09569,"latitude":47.921778},{"id":1955,"address":"200 GARDEN CT  SNOHOMISH WA","longitude":-122.083253,"latitude":47.919409},{"id":1958,"address":"204 Skyland Dr Smithfield NC","longitude":-78.362225,"latitude":35.520885},{"id":1959,"address":"408 Powell St Smithfield NC","longitude":-78.360885,"latitude":35.531665},{"id":1960,"address":"101-132 Cambridge Pl Smithfield NC","longitude":-78.3254305,"latitude":35.520069},{"id":1962,"address":"101 W Water St Slippery Rock PA","longitude":-80.0576,"latitude":41.064593},{"id":1963,"address":"102-106 Fairview Dr Slippery Rock PA","longitude":-80.0522709,"latitude":41.0580298},{"id":1965,"address":"8540 NILES CENTER RD #60 SKOKIE IL","longitude":-87.7503,"latitude":42.03669},{"id":1966,"address":"4949 CHURCH ST SKOKIE IL","longitude":-87.75131,"latitude":42.047764},{"id":1967,"address":"8532 SKOKIE BLVD  SKOKIE IL","longitude":-87.74758,"latitude":42.036685},{"id":1968,"address":"4309 FIELDCREST DR #4331 SIOUX CITY IA","longitude":-96.45685,"latitude":42.50511},{"id":1969,"address":"8838 LAVERGNE AVE  SKOKIE IL","longitude":-87.752235,"latitude":42.04203},{"id":1970,"address":"3009 LILAC LN SIOUX CITY IA","longitude":-96.327517,"latitude":42.457671},{"id":1971,"address":"2562 PIERCE ST SIOUX CITY IA","longitude":-96.404554,"latitude":42.516611},{"id":1972,"address":"1080 N 2ND ST  SILVERTON OR","longitude":-122.783245,"latitude":45.014735},{"id":1973,"address":"2620 NE 52ND CT SILVER SPRINGS FL","longitude":-82.062319,"latitude":29.21406},{"id":1974,"address":"359 WARREN AVE SILVERTHORNE CO","longitude":-106.079377,"latitude":39.629666},{"id":1975,"address":"4409 Anderson Hill Rd Silverdale WA","longitude":-122.707493,"latitude":47.653361},{"id":1976,"address":"13920 CASTLE BLVD  SILVER SPRING MD","longitude":-76.943689,"latitude":39.085124},{"id":1977,"address":"3411 NE 55TH AVE SILVER SPRINGS FL","longitude":-82.057507,"latitude":29.221795},{"id":1978,"address":"100 CROYDON CT  SILVER SPRING MD","longitude":-77.012028,"latitude":39.00367},{"id":1957,"address":"1 Towbridge Dr Smithfield NC","longitude":-78.321186,"latitude":35.519527},{"id":1961,"address":"485 Center St Slippery Rock PA","longitude":-80.049232,"latitude":41.06726},{"id":1964,"address":"1565 NEW SCOTLAND RD SLINGERLANDS NY","longitude":-73.865595,"latitude":42.6294},{"id":1981,"address":"807 ARROWHEAD DR SIDNEY OH","longitude":-84.14377,"latitude":40.31755},{"id":1982,"address":"17212 AURORA AVE N SHORELINE WA","longitude":-122.345185,"latitude":47.754161},{"id":1983,"address":"3816 PARKWAY DR  SHREVEPORT LA","longitude":-93.735717,"latitude":32.471348},{"id":1984,"address":"20120 WHITMAN AVE N SHORELINE WA","longitude":-122.346973,"latitude":47.775653},{"id":1985,"address":"19211 15TH AVE  SHORELINE WA","longitude":-122.37768,"latitude":47.76874},{"id":1986,"address":"16541 5TH AVE  SHORELINE WA","longitude":-122.3243,"latitude":47.74977},{"id":1987,"address":"20060 WHITMAN AVE  SHORELINE WA","longitude":-122.346953,"latitude":47.774743},{"id":1988,"address":"1530 NE 146TH ST  SHORELINE WA","longitude":-122.31132,"latitude":47.7352},{"id":1989,"address":"18018 15TH AVE  SHORELINE WA","longitude":-122.312784,"latitude":47.759908},{"id":1990,"address":"2600 NE 195TH ST  SHORELINE WA","longitude":-122.300965,"latitude":47.770525},{"id":1991,"address":"20034 15TH AVE  SHORELINE WA","longitude":-122.312881,"latitude":47.775362},{"id":1992,"address":"604 NE 165TH ST  SHORELINE WA","longitude":-122.322245,"latitude":47.74903},{"id":1995,"address":"1451 W McKay Rd Shelbyville IN","longitude":-85.799107,"latitude":39.504106},{"id":1996,"address":"5480 Shannon Rd Shannon NC","longitude":-79.091266,"latitude":34.784179},{"id":1997,"address":"501-507 John J Sharpe St Sharpsburg NC","longitude":-77.831555,"latitude":35.86686},{"id":1998,"address":"1240 4TH AVE  SHAKOPEE MN","longitude":-93.509087,"latitude":44.79706},{"id":1999,"address":"100 8TH AVE  SHALIMAR FL","longitude":-86.567356,"latitude":30.442917},{"id":2000,"address":"20825 CHAGRIN BLVD SHAKER HEIGHTS OH","longitude":-81.53305,"latitude":41.46482},{"id":2001,"address":"2572 KEMPER RD SHAKER HEIGHTS OH","longitude":-81.590658,"latitude":41.488325},{"id":2002,"address":"19333 VAN AKEN BLVD SHAKER HEIGHTS OH","longitude":-81.543039,"latitude":41.46728},{"id":2003,"address":"375 FASOLA RD  SEQUIM WA","longitude":-123.141612,"latitude":48.11093},{"id":2005,"address":"3311 WARRENSVILLE CENTER RD SHAKER HEIGHTS OH","longitude":-81.535473,"latitude":41.469508},{"id":2006,"address":"9700 102ND AVE SEMINOLE FL","longitude":-82.77345,"latitude":27.86428},{"id":2007,"address":"7525 83RD ST SEMINOLE FL","longitude":-82.75306,"latitude":27.839995},{"id":2008,"address":"715 N Park Ctr Selah WA","longitude":-120.520561,"latitude":46.665281},{"id":2009,"address":"101-151 River Oaks Dr Selma NC","longitude":-78.284444,"latitude":35.536549},{"id":2010,"address":"3210 LAKEVIEW DR #UNITS58-75 SEBRING FL","longitude":-84.332849,"latitude":30.409769},{"id":2011,"address":"401 Broadway Seattle WA","longitude":-122.321221,"latitude":47.605597},{"id":2012,"address":"5261 California Ave SW Seattle WA","longitude":-122.387394,"latitude":47.554733},{"id":2014,"address":"1901 42nd Ave E Seattle WA","longitude":-122.278755,"latitude":47.635925},{"id":2015,"address":"501 8th Ave N Seattle WA","longitude":-122.34135,"latitude":47.62351},{"id":2016,"address":"5204 15TH AVE NE SEATTLE WA","longitude":-122.311605,"latitude":47.666659},{"id":2017,"address":"9720 4th Ave. N.E. Seattle WA","longitude":-122.362068,"latitude":47.700263},{"id":2018,"address":"2101 7TH AVE SEATTLE WA","longitude":-122.36669,"latitude":47.63799},{"id":2019,"address":"6104 14TH AVE NW SEATTLE WA","longitude":-122.37317,"latitude":47.67338},{"id":2020,"address":"3845 AURORA AVE N SEATTLE WA","longitude":-122.3477,"latitude":47.653927},{"id":2013,"address":"5429 California Ave SW Seattle WA","longitude":-122.387376,"latitude":47.553061},{"id":1979,"address":"12621 LAYHILL RD  SILVER SPRING MD","longitude":-77.04864,"latitude":39.064},{"id":2022,"address":"2863 THORNDYKE AVE W SEATTLE WA","longitude":-122.382434,"latitude":47.646428},{"id":2023,"address":"220 SW 112TH ST SEATTLE WA","longitude":-122.33733,"latitude":47.50329},{"id":2024,"address":"5017 15TH AVE NE SEATTLE WA","longitude":-122.31226,"latitude":47.665527},{"id":2025,"address":"5204 18TH AVE NE SEATTLE WA","longitude":-122.307981,"latitude":47.666562},{"id":2026,"address":"5800 22ND AVE NW SEATTLE WA","longitude":-122.38426,"latitude":47.671155},{"id":2028,"address":"2240 NW 58TH ST SEATTLE WA","longitude":-122.386601,"latitude":47.671125},{"id":2029,"address":"4055 9TH AVE NE SEATTLE WA","longitude":-122.319082,"latitude":47.656951},{"id":2030,"address":"2520 32ND AVE W SEATTLE WA","longitude":-122.397898,"latitude":47.641805},{"id":2031,"address":"2745 60TH AVE SW SEATTLE WA","longitude":-122.409735,"latitude":47.578087},{"id":2032,"address":"6736 24TH AVE NW SEATTLE WA","longitude":-122.363453,"latitude":47.541592},{"id":2033,"address":"5609 2ND AVE NW SEATTLE WA","longitude":-122.360073,"latitude":47.67023},{"id":2034,"address":"2727 NE 125TH ST SEATTLE WA","longitude":-122.643489,"latitude":45.711842},{"id":2035,"address":"4255 GILMAN AVE W SEATTLE WA","longitude":-122.39039,"latitude":47.65849},{"id":2036,"address":"2616 NW 56TH ST SEATTLE WA","longitude":-122.390931,"latitude":47.669673},{"id":2037,"address":"1801 20TH AVE SEATTLE WA","longitude":-122.306475,"latitude":47.61781},{"id":2038,"address":"201 NE 40TH ST SEATTLE WA","longitude":-122.359255,"latitude":47.655405},{"id":2040,"address":"3301 NE 123RD ST SEATTLE WA","longitude":-122.292457,"latitude":47.717175},{"id":2041,"address":"2724 ALKI AVE SW SEATTLE WA","longitude":-122.410329,"latitude":47.57897},{"id":2042,"address":"3033 NE 140TH ST SEATTLE WA","longitude":-122.294837,"latitude":47.729903},{"id":2043,"address":"512 GALER ST SEATTLE WA","longitude":-122.346475,"latitude":47.63253},{"id":2044,"address":"4029 7TH AVE NE SEATTLE WA","longitude":-122.321178,"latitude":47.656475},{"id":2045,"address":"1428 QUEEN ANNE AVE N 103 SEATTLE WA","longitude":-122.356317,"latitude":47.63207},{"id":2046,"address":"171 16TH AVE SEATTLE WA","longitude":-122.311561,"latitude":47.603401},{"id":2047,"address":"2003 BOYLSTON AVE E SEATTLE WA","longitude":-122.323718,"latitude":47.636929},{"id":2048,"address":"7515 24TH AVE NW SEATTLE WA","longitude":-122.387919,"latitude":47.683639},{"id":2049,"address":"8400 5TH AVE NE SEATTLE WA","longitude":-122.322756,"latitude":47.689885},{"id":2050,"address":"4326 WINSLOW PL N SEATTLE WA","longitude":-122.346352,"latitude":47.660418},{"id":2051,"address":"11521 26TH AVE NE SEATTLE WA","longitude":-122.30087,"latitude":47.71291},{"id":2052,"address":"2226 NE 46TH ST SEATTLE WA","longitude":-122.303421,"latitude":47.66201},{"id":2054,"address":"2117 DEXTER AVE N SEATTLE WA","longitude":-122.343874,"latitude":47.638027},{"id":2055,"address":"12000 SAND POINT WAY NE SEATTLE WA","longitude":-122.283109,"latitude":47.716405},{"id":2056,"address":"7532 RENTON AVE S SEATTLE WA","longitude":-122.27936,"latitude":47.53418},{"id":2057,"address":"530 S CLOVERDALE ST SEATTLE WA","longitude":-122.326848,"latitude":47.526686},{"id":2059,"address":"4017 CALIFORNIA AVE SW SEATTLE WA","longitude":-122.387166,"latitude":47.56784},{"id":2060,"address":"1950 26TH AVE W SEATTLE WA","longitude":-122.390062,"latitude":47.636475},{"id":2062,"address":"2132 CALIFORNIA AVE SW SEATTLE WA","longitude":-122.386003,"latitude":47.584318},{"id":2039,"address":"1918 8TH AVE SEATTLE WA","longitude":-122.36732,"latitude":47.63658},{"id":2053,"address":"5333 15TH AVE S SEATTLE WA","longitude":-122.313749,"latitude":47.553686},{"id":2058,"address":"103 E LYNN ST SEATTLE WA","longitude":-122.326855,"latitude":47.63955},{"id":2061,"address":"2304 W CROCKETT ST SEATTLE WA","longitude":-122.386447,"latitude":47.637857},{"id":2063,"address":"2602 4TH AVE SEATTLE WA","longitude":-122.36197,"latitude":47.643385},{"id":2065,"address":"3640 WHITMAN AVE N 101 SEATTLE WA","longitude":-122.345621,"latitude":47.651971},{"id":2066,"address":"3515 SW OCEAN VIEW DR SEATTLE WA","longitude":-122.37649,"latitude":47.50227},{"id":2067,"address":"9515 INTERLAKE AVE N SEATTLE WA","longitude":-122.341125,"latitude":47.69837},{"id":2068,"address":"9233 INTERLAKE AVE N SEATTLE WA","longitude":-122.341126,"latitude":47.696949},{"id":2069,"address":"312 28TH AVE S SEATTLE WA","longitude":-122.295881,"latitude":47.599876},{"id":2071,"address":"2200 FRANKLIN AVE E SEATTLE WA","longitude":-122.324386,"latitude":47.638405},{"id":2072,"address":"4147 36TH AVE SW SEATTLE WA","longitude":-122.377817,"latitude":47.565115},{"id":2073,"address":"10734 STONE AVE N SEATTLE WA","longitude":-122.341777,"latitude":47.707867},{"id":2075,"address":"3116 NW 85TH ST SEATTLE WA","longitude":-122.397845,"latitude":47.690801},{"id":2079,"address":"9512 INTERLAKE AVE N SEATTLE WA","longitude":-122.34049,"latitude":47.69829},{"id":2081,"address":"601 PROSPECT ST SEATTLE WA","longitude":-122.344545,"latitude":47.628708},{"id":2082,"address":"922 N 104TH ST SEATTLE WA","longitude":-122.34638,"latitude":47.70455},{"id":2083,"address":"5213 RAVENNA AVE NE SEATTLE WA","longitude":-122.303735,"latitude":47.666928},{"id":2084,"address":"8620 3RD AVE NW SEATTLE WA","longitude":-122.360277,"latitude":47.692058},{"id":2085,"address":"2410 13TH AVE S SEATTLE WA","longitude":-122.315636,"latitude":47.581609},{"id":2086,"address":"1908 8TH AVE N SEATTLE WA","longitude":-122.341174,"latitude":47.636185},{"id":2087,"address":"3424 MERIDIAN AVE N SEATTLE WA","longitude":-122.333551,"latitude":47.648639},{"id":2088,"address":"5013 SAND POINT PL NE SEATTLE WA","longitude":-122.28186,"latitude":47.66543},{"id":2076,"address":"2515 THORNDYKE AVE W SEATTLE WA","longitude":-122.385765,"latitude":47.64191},{"id":2070,"address":"1634 CALIFORNIA AVE SW SEATTLE WA","longitude":-122.385923,"latitude":47.588214},{"id":2074,"address":"1531 NW 59TH ST SEATTLE WA","longitude":-122.377701,"latitude":47.671436},{"id":2090,"address":"151 JOHN ST SEATTLE WA","longitude":-122.353775,"latitude":47.619584},{"id":2077,"address":"10622 MERIDIAN AVE N SEATTLE WA","longitude":-122.333608,"latitude":47.706681},{"id":2078,"address":"712 3RD AVE SEATTLE WA","longitude":-122.360262,"latitude":47.62614},{"id":2089,"address":"662 NE 42ND ST SEATTLE WA","longitude":-122.3213,"latitude":47.65776},{"id":2080,"address":"12301 33RD AVE NE SEATTLE WA","longitude":-122.29317,"latitude":47.71764},{"id":2094,"address":"3800 AURORA AVE N SEATTLE WA","longitude":-122.346908,"latitude":47.653011},{"id":2091,"address":"5517 13TH AVE S SEATTLE WA","longitude":-122.316491,"latitude":47.552896},{"id":2092,"address":"6407 17TH AVE NW SEATTLE WA","longitude":-122.379157,"latitude":47.675589},{"id":2095,"address":"11060 4TH AVE SW SEATTLE WA","longitude":-122.338236,"latitude":47.503345},{"id":2096,"address":"1701 E MERCER ST SEATTLE WA","longitude":-122.309638,"latitude":47.624275},{"id":2097,"address":"4315 WHITMAN AVE N SEATTLE WA","longitude":-122.345987,"latitude":47.660135},{"id":2098,"address":"815 15TH AVE E SEATTLE WA","longitude":-122.312913,"latitude":47.626557},{"id":2106,"address":"922 10TH AVE E SEATTLE WA","longitude":-122.319879,"latitude":47.627538},{"id":2099,"address":"12743 GREENWOOD AVE N SEATTLE WA","longitude":-122.355978,"latitude":47.722672},{"id":2101,"address":"3620 26TH PL W SEATTLE WA","longitude":-122.38856,"latitude":47.652837},{"id":2100,"address":"7801 GREENWOOD AVE N SEATTLE WA","longitude":-122.355669,"latitude":47.6857},{"id":2102,"address":"5310 SW COLLEGE ST SEATTLE WA","longitude":-122.398311,"latitude":47.583875},{"id":2103,"address":"4217 SW DAWSON ST SEATTLE WA","longitude":-122.386272,"latitude":47.555471},{"id":2104,"address":"4329 15TH AVE S SEATTLE WA","longitude":-122.313904,"latitude":47.564345},{"id":2105,"address":"2508 DEXTER AVE N SEATTLE WA","longitude":-122.34456,"latitude":47.642582},{"id":2113,"address":"9100 45TH AVE SW SEATTLE WA","longitude":-122.389895,"latitude":47.522685},{"id":2108,"address":"6513 4TH AVE NE SEATTLE WA","longitude":-122.325029,"latitude":47.676215},{"id":2109,"address":"3832 EASTERN AVE N SEATTLE WA","longitude":-122.328774,"latitude":47.654149},{"id":2110,"address":"525 1ST AVE W SEATTLE WA","longitude":-122.35838,"latitude":47.62405},{"id":2111,"address":"716 NE 42ND ST SEATTLE WA","longitude":-122.320016,"latitude":47.657725},{"id":2112,"address":"4719 15TH AVE NE SEATTLE WA","longitude":-122.312258,"latitude":47.663639},{"id":2114,"address":"3630 RENTON AVE S SEATTLE WA","longitude":-122.295486,"latitude":47.570956},{"id":2126,"address":"3232 15TH AVE W SEATTLE WA","longitude":-122.375847,"latitude":47.64949},{"id":2115,"address":"2731 60TH AVE SW SEATTLE WA","longitude":-122.409663,"latitude":47.578574},{"id":2116,"address":"11539 GREENWOOD AVE N SEATTLE WA","longitude":-122.356,"latitude":47.713555},{"id":2118,"address":"4545 8TH AVE NE SEATTLE WA","longitude":-122.319888,"latitude":47.662285},{"id":2120,"address":"707 N 85TH ST SEATTLE WA","longitude":-122.349426,"latitude":47.690355},{"id":2117,"address":"10317 MIDVALE AVE N SEATTLE WA","longitude":-122.343681,"latitude":47.703817},{"id":2121,"address":"3810 34TH AVE W SEATTLE WA","longitude":-122.400459,"latitude":47.654465},{"id":2122,"address":"11300 5TH AVE NE SEATTLE WA","longitude":-122.323008,"latitude":47.710897},{"id":2123,"address":"4322 7TH AVE NE SEATTLE WA","longitude":-122.32053,"latitude":47.66009},{"id":2124,"address":"2801 14TH AVE W SEATTLE WA","longitude":-122.375239,"latitude":47.644972},{"id":2125,"address":"2620 NW 56TH ST SEATTLE WA","longitude":-122.39114,"latitude":47.669673},{"id":2130,"address":"300 11TH AVE SEATTLE WA","longitude":-122.317732,"latitude":47.60457},{"id":2129,"address":"208 FLORENTIA ST SEATTLE WA","longitude":-122.352658,"latitude":47.647124},{"id":2127,"address":"114 24TH AVE E SEATTLE WA","longitude":-122.30101,"latitude":47.61949},{"id":2128,"address":"821 9TH AVE SEATTLE WA","longitude":-122.32689,"latitude":47.60741},{"id":2132,"address":"4710 DAYTON AVE N 8 SEATTLE WA","longitude":-122.352505,"latitude":47.663345},{"id":2131,"address":"4511 8TH AVE NE SEATTLE WA","longitude":-122.319898,"latitude":47.661669},{"id":2133,"address":"6512 MARTIN LUTHER KING JR WAY S SEATTLE WA","longitude":-122.283961,"latitude":47.543425},{"id":2137,"address":"1807 18TH AVE SEATTLE WA","longitude":-122.309177,"latitude":47.617935},{"id":2134,"address":"11233 DES MOINES MEMORIAL DR S SEATTLE WA","longitude":-122.321588,"latitude":47.506877},{"id":2135,"address":"4116 12TH AVE NE SEATTLE WA","longitude":-122.315242,"latitude":47.657505},{"id":2136,"address":"1903 NE 85TH ST SEATTLE WA","longitude":-122.307232,"latitude":47.690105},{"id":2138,"address":"12250 GREENWOOD AVE N SEATTLE WA","longitude":-122.355103,"latitude":47.719127},{"id":2139,"address":"5437 FAUNTLEROY WAY SW SEATTLE WA","longitude":-122.38204,"latitude":47.552746},{"id":2140,"address":"1737 NW 56TH ST SEATTLE WA","longitude":-122.380451,"latitude":47.66922},{"id":2141,"address":"1535 BELLEVUE AVE SEATTLE WA","longitude":-122.327129,"latitude":47.615014},{"id":2142,"address":"5959 FAUNTLEROY WAY SW SEATTLE WA","longitude":-122.383467,"latitude":47.54858},{"id":2143,"address":"844 NE 69TH ST SEATTLE WA","longitude":-122.317722,"latitude":47.678921},{"id":2144,"address":"5030 CALIFORNIA AVE SW SEATTLE WA","longitude":-122.386505,"latitude":47.55653},{"id":2145,"address":"1140 18TH AVE SEATTLE WA","longitude":-122.30855,"latitude":47.612625},{"id":2146,"address":"1440 NW 60TH ST SEATTLE WA","longitude":-122.375511,"latitude":47.672588},{"id":2147,"address":"11222 CORLISS AVE N SEATTLE WA","longitude":-122.331052,"latitude":47.710353},{"id":2148,"address":"2366 YALE AVE E SEATTLE WA","longitude":-122.326776,"latitude":47.641646},{"id":2149,"address":"3019 NE 130TH ST SEATTLE WA","longitude":-122.29543,"latitude":47.72265},{"id":2749,"address":"3435 SE 13TH AVE PORTLAND OR","longitude":-122.652667,"latitude":45.497714},{"id":2752,"address":"2700 SE STARK ST PORTLAND OR","longitude":-122.63783,"latitude":45.51912},{"id":2754,"address":"10934 NE WYGANT ST PORTLAND OR","longitude":-122.5499,"latitude":45.55636},{"id":2756,"address":"3602 SW BEAVERTON HILLSDALE HWY PORTLAND OR","longitude":-122.71443,"latitude":45.48297},{"id":2758,"address":"11102 SW 62ND AVE #11130 PORTLAND OR","longitude":-122.740291,"latitude":45.44472},{"id":2759,"address":"1326 SE CENTER ST #1340 PORTLAND OR","longitude":-122.65204,"latitude":45.49376},{"id":2760,"address":"4109 SE MORRISON ST #4119 PORTLAND OR","longitude":-122.62007,"latitude":45.517585},{"id":2762,"address":"4728 SW LURADEL ST PORTLAND OR","longitude":-122.726259,"latitude":45.450229},{"id":2763,"address":"3201 SW MARIGOLD ST #3217 PORTLAND OR","longitude":-122.709975,"latitude":45.460685},{"id":2766,"address":"7656 N INTERSTATE AVE #7688 PORTLAND OR","longitude":-122.681696,"latitude":45.578974},{"id":2767,"address":"3430 SE 58TH AVE PORTLAND OR","longitude":-122.6026,"latitude":45.49771},{"id":2769,"address":"801 SE 190TH AVE PORTLAND OR","longitude":-122.468752,"latitude":45.51691},{"id":2770,"address":"2284 NW EVERETT ST PORTLAND OR","longitude":-122.698085,"latitude":45.524575},{"id":2771,"address":"1725 SW MULTNOMAH BLVD PORTLAND OR","longitude":-122.695773,"latitude":45.466075},{"id":2773,"address":"2020 SW SALMON ST PORTLAND OR","longitude":-122.694052,"latitude":45.52044},{"id":2774,"address":"2308 SW OSAGE ST #2326 PORTLAND OR","longitude":-122.699295,"latitude":45.522745},{"id":2775,"address":"3118 SE ALDER CT #3130 PORTLAND OR","longitude":-122.645736,"latitude":45.517891},{"id":2776,"address":"12800 NE SANDY BLVD PORTLAND OR","longitude":-122.53092,"latitude":45.55581},{"id":2777,"address":"760 SW VISTA AVE PORTLAND OR","longitude":-122.697897,"latitude":45.522554},{"id":2778,"address":"3803 NE 152ND AVE #3891 PORTLAND OR","longitude":-122.506653,"latitude":45.550973},{"id":2779,"address":"4915 SW 56TH AVE #4925 PORTLAND OR","longitude":-122.735404,"latitude":45.48788},{"id":2832,"address":"4206 SE SALMON ST  PORTLAND OR","longitude":-122.6191,"latitude":45.51404},{"id":2833,"address":"1334 NW 25TH AVE  PORTLAND OR","longitude":-122.957004,"latitude":45.534587},{"id":2834,"address":"1926 SE ASH ST  PORTLAND OR","longitude":-122.64581,"latitude":45.52132},{"id":2835,"address":"3430 SE 68TH AVE  PORTLAND OR","longitude":-122.59294,"latitude":45.49772},{"id":2836,"address":"5025 SW CORBETT AVE  PORTLAND OR","longitude":-122.67697,"latitude":45.48671},{"id":2150,"address":"12527 ROOSEVELT WAY NE SEATTLE WA","longitude":-122.319192,"latitude":47.720026},{"id":2748,"address":"5630 N INTERSTATE AVE PORTLAND OR","longitude":-122.68188,"latitude":45.56384},{"id":2750,"address":"1510 SE 44TH AVE PORTLAND OR","longitude":-122.616914,"latitude":45.511768},{"id":2753,"address":"800 SW GREEN AVE PORTLAND OR","longitude":-122.698852,"latitude":45.522705},{"id":2755,"address":"5224 SE 72ND AVE PORTLAND OR","longitude":-122.58829,"latitude":45.48535},